[
    { "Target_business_id": "Nk-SJhPlDBkAZvfsADtccA","business_id": "x0OAF05CX65aVWeZbhpHaw", "name": "Foot Healers", "address": "7257 Watson Rd", "city": "Saint Louis","latitude":38.5837894,"longitude":-90.3201146,"stars":3.0, "Map": "Paris", "photo": "Test123", "Rec_final_score": 5, "Rec_final_rank": 1, "Rec_user_score": 5, "Rec_user_rank": 1,"Rec_content_score": 5, "Rec_content_rank": 1,"Rec_item_score": 5, "Rec_item_rank": 1},
    { "Target_business_id": "Nk-SJhPlDBkAZvfsADtccA","business_id": "d_ue9hcPaLm6x-SVFPCmYA", "name": "Foot Finesse II", "address": "1416 S Range Line Rd", "city": "Carmel", "latitude":39.9574397,"longitude":-86.1277632,"stars":4.0, "Map": "Paris", "photo": "Test123", "Rec_final_score": 4, "Rec_final_rank": 2, "Rec_user_score": 4, "Rec_user_rank": 2,"Rec_content_score": 4, "Rec_content_rank": 2,"Rec_item_score": 4, "Rec_item_rank": 2},
    { "Target_business_id": "Nk-SJhPlDBkAZvfsADtccA","business_id": "bZcUSf2h8WG1xXfmIfslZA", "name": "Countryside Foot & Ankle Center", "address": "2521 Countryside Blvd", "city": "Clearwater", "latitude":28.0129084,"longitude":-82.7376642,"stars":3.5, "Map": "Paris", "photo": "Test123", "Rec_final_score": 3, "Rec_final_rank": 3, "Rec_user_score": 3, "Rec_user_rank": 3,"Rec_content_score": 3, "Rec_content_rank": 3,"Rec_item_score": 3, "Rec_item_rank": 3},
    { "Target_business_id": "Nk-SJhPlDBkAZvfsADtccA","business_id": "kRgTqS719p8CzPnTp-Z-uQ", "name": "Happy Foot Massage", "address": "9657 Bay Pines Blvd", "city": "Saint Petersburg", "latitude":27.814845,"longitude":-82.7733695,"stars":4.0, "Map": "Paris", "photo": "Test123", "Rec_final_score": 2, "Rec_final_rank": 4, "Rec_user_score": 2, "Rec_user_rank": 4,"Rec_content_score": 2, "Rec_content_rank": 4,"Rec_item_score": 2, "Rec_item_rank": 4},
    { "Target_business_id": "Nk-SJhPlDBkAZvfsADtccA","business_id": "BpE-bMcZlh6DyBWgztjGxQ", "name": "Healthy Foot Care", "address": "124 Lantana Dr", "city": "Hockessin", "latitude":39.7753329,"longitude":-75.7105815,"stars":4.5, "Map": "Paris", "photo": "Test123", "Rec_final_score": 1, "Rec_final_rank": 5, "Rec_user_score": 1, "Rec_user_rank": 5,"Rec_content_score": 1, "Rec_content_rank": 5,"Rec_item_score": 1, "Rec_item_rank": 5}

]


{"business_id":"x0OAF05CX65aVWeZbhpHaw","name":"Foot Healers","address":"7257 Watson Rd","city":"Saint Louis","state":"MO","postal_code":"63119","latitude":38.5837894,"longitude":-90.3201146,"stars":3.0,"review_count":10,"is_open":1,"attributes":{"ByAppointmentOnly":"False","BusinessAcceptsCreditCards":"True","AcceptsInsurance":"True"},"categories":"Podiatrists, Doctors, Health & Medical","hours":{"Monday":"8:30-17:30","Tuesday":"8:30-17:30","Wednesday":"8:30-17:0","Thursday":"9:0-18:0","Friday":"8:30-17:0"}}
{"business_id":"d_ue9hcPaLm6x-SVFPCmYA","name":"Foot Finesse II","address":"1416 S Range Line Rd","city":"Carmel","state":"IN","postal_code":"46032","latitude":39.9574397,"longitude":-86.1277632,"stars":4.0,"review_count":23,"is_open":0,"attributes":{"BusinessAcceptsCreditCards":"True","RestaurantsPriceRange2":"1","BusinessParking":"{'garage': False, 'street': True, 'validated': False, 'lot': False, 'valet': False}","BikeParking":"False","ByAppointmentOnly":"False"},"categories":"Massage, Beauty & Spas","hours":null}
{"business_id":"bZcUSf2h8WG1xXfmIfslZA","name":"Countryside Foot & Ankle Center","address":"2521 Countryside Blvd","city":"Clearwater","state":"FL","postal_code":"33763","latitude":28.0129084,"longitude":-82.7376642,"stars":3.5,"review_count":6,"is_open":1,"attributes":{"ByAppointmentOnly":"False","BusinessAcceptsCreditCards":"True","AcceptsInsurance":"True"},"categories":"Podiatrists, Health & Medical, Doctors, Orthotics, Orthopedists, Sports Medicine","hours":{"Monday":"8:0-17:0","Tuesday":"8:0-17:0","Wednesday":"8:0-17:0","Thursday":"8:0-17:0","Friday":"8:0-17:0"}}
{"business_id":"kRgTqS719p8CzPnTp-Z-uQ","name":"Happy Foot Massage","address":"9657 Bay Pines Blvd","city":"Saint Petersburg","state":"FL","postal_code":"33708","latitude":27.814845,"longitude":-82.7733695,"stars":4.0,"review_count":11,"is_open":1,"attributes":{"ByAppointmentOnly":"False","BusinessAcceptsCreditCards":"True","BusinessParking":"{'garage': False, 'street': False, 'validated': False, 'lot': False, 'valet': False}","WiFi":"u'no'","RestaurantsPriceRange2":"2"},"categories":"Reflexology, Beauty & Spas, Health & Medical, Massage, Massage Therapy","hours":{"Monday":"10:0-22:0","Tuesday":"10:0-22:0","Wednesday":"10:0-22:0","Thursday":"10:0-22:0","Friday":"10:0-22:0","Saturday":"10:0-22:0","Sunday":"10:0-10:30"}}
{"business_id":"BpE-bMcZlh6DyBWgztjGxQ","name":"Healthy Foot Care","address":"124 Lantana Dr","city":"Hockessin","state":"DE","postal_code":"19707","latitude":39.7753329,"longitude":-75.7105815,"stars":4.5,"review_count":10,"is_open":1,"attributes":{"AcceptsInsurance":"False","BusinessParking":"{'garage': False, 'street': False, 'validated': False, 'lot': True, 'valet': False}","BikeParking":"True","ByAppointmentOnly":"False","WiFi":"u'paid'","WheelchairAccessible":"True","BusinessAcceptsCreditCards":"False"},"categories":"Beauty & Spas, Reflexology, Day Spas, Health & Medical, Massage","hours":{"Monday":"10:0-21:0","Tuesday":"10:0-21:0","Wednesday":"10:0-21:0","Thursday":"10:0-21:0","Friday":"10:0-21:0","Saturday":"10:0-21:0","Sunday":"12:0-20:0"}}
