,Region,Area,Site_Name,place_name(googleAPI),lat,lng,tag,tag_zh,Site_Type,rating,formatted_address
0,東北,岩手,中尊寺,中尊寺,39.0017355,141.102596,"Landscape ,Japan ,Nature ,Blue sky ,Sunny ,Sightseeing resort ,Tree ,Tourism ,Building ,Autumn ,Green ,Noted place ,Autumn leaves ,Plant ,Travel ,Tourist attractions ,Early summer ,Tourist attractions ,November ,Winter ,May ,Fresh green ,Landscape ,Snow ,Tohoku ,Green ,Red ,Temple ,World heritage site ,Yellow","風景 ,日本 ,自然 ,藍藍的天空 ,晴天 ,觀光地 ,木頭 ,觀光 ,建設 ,秋天 ,綠色 ,名所 ,紅葉 ,植物 ,旅行 ,觀光名所 ,初夏 ,11月 ,旅遊景點 ,冬 ,5月 ,鮮綠 ,景色 ,雪 ,東北 ,綠色 ,紅色 ,寺 ,世界文化遺產 ,黃色",,4.3,日本、〒029-4102 岩手県西磐井郡平泉町平泉衣関２０２
4,東北,仙台,奥松島,（株）奥松島公社 奥松島嵯峨渓遊覧船案内所,38.3428629,141.1500448,"Landscape ,Japan ,Nature ,Blue sky ,Sunny ,Sightseeing resort ,Tourism ,Autumn ,Spring ,Green ,Noted place ,Plant ,Travel ,Sea ,Cherry ,Water surface ,May ,Fresh green ,Superb view ,Landscape ,Tohoku ,Green ,Blue ,Beautiful ,Trip ,Coast ,Forest ,Water ,Leaf ,Scenic spot","風景 ,日本 ,自然 ,藍藍的天空 ,晴天 ,觀光地 ,觀光 ,秋天 ,春天 ,綠色 ,名所 ,植物 ,旅行 ,海 ,櫻花 ,水面 ,5月 ,鮮綠 ,絶景 ,景色 ,東北 ,藍色 ,綠色 ,美麗 ,海岸 ,旅 ,森 ,水 ,葉 ,森林",,4.1,日本、〒981-0412 宮城県東松島市宮戸川原５−１
5,關東,茨城,國營常陸海濱公園,国営ひたち海浜公園,36.4060402,140.5982249,"Landscape ,Japan ,Nature ,Blue sky ,Sunny ,Sightseeing resort ,Tourism ,Autumn ,Spring ,Green ,Flower ,Noted place ,Autumn leaves ,Cloud ,Plant ,Travel ,Tourist attractions ,Tourist attractions ,May ,Superb view ,October ,Landscape ,Sunny ,Park ,Blue ,August ,Beautiful ,Red ,Trip ,Kanto","風景 ,日本 ,自然 ,藍藍的天空 ,晴天 ,觀光地 ,觀光 ,秋天 ,春天 ,綠色 ,花 ,名所 ,紅葉 ,雲 ,植物 ,旅行 ,觀光名所 ,旅遊景點 ,5月 ,絶景 ,10月 ,景色 ,陽光明媚 ,公園 ,藍色 ,8月 ,紅色 ,美麗 ,旅 ,關東",,4.3,日本、〒312-0012 茨城県ひたちなか市馬渡大沼６０５−４
6,東北,青森,橫濱町油菜花田,菜の花畑,41.1159653,141.2727924,"Landscape ,Japan ,Nature ,Blue sky ,Spring ,Flower ,May ,Flower garden ,Aomori Prefecture ,Background ,Rape blossoms ,Field ,Agriculture ,Rape field ,Grazing ,Stock farm ,Cow ,Yokohama-cho ,Rape blossoms","風景 ,日本 ,自然 ,藍藍的天空 ,春天 ,花 ,5月 ,花卉園 ,青森縣 ,背景 ,油菜花 ,田 ,農業 ,油菜花田 ,放牧 ,牧場 ,牛 ,橫濱市 ,油菜",,4.2,日本、〒039-4114 青森県上北郡横浜町大豆田
7,北海道,道東,摩周湖,摩周湖,43.5872284,144.5237617,"Landscape ,Nature ,Blue sky ,Mountain ,Cloud ,Winter ,Hokkaido ,Snow ,Blue ,Beautiful ,Lake ,February ,Snowscape ,March ,Snow coverage ,Beautiful ,Sun ,Morning sun ,Dawn ,Bright ,Sunrise ,Ice ,Eastern part of Hokkaido ,Rime of trees ,Cold ,Akan National Park ,Lake Mashu ,Teshikaga-ｃho ,Caldera lake ,Severe winter","風景 ,自然 ,藍藍的天空 ,山 ,雲 ,冬 ,北海道 ,雪 ,藍色 ,美麗 ,湖 ,2月 ,雪景 ,3月 ,積雪 ,漂亮 ,太陽 ,朝日 ,黎明 ,光亮 ,日出 ,冰 ,道東 ,樹冰 ,冷 ,阿寒國家公園 ,摩周湖 ,弟子屈町 ,火山口湖 ,嚴寒",,4.4,日本、北海道川上郡弟子屈町 摩周湖
8,中部,金澤,金澤城公園,金沢城公園,36.5656885,136.6596996,"Landscape ,Japan ,Nature ,Blue sky ,Sunny ,Sightseeing resort ,Tourism ,Building ,Autumn ,Spring ,Flower ,Noted place ,Autumn leaves ,Cloud ,Travel ,Tourist attractions ,April ,Tourist attractions ,November ,Cherry ,Winter ,May ,Fresh green ,Superb view ,Night ,Pink ,In full bloom ,Sunny ,Snow ,Park","風景 ,日本 ,自然 ,藍藍的天空 ,晴天 ,觀光地 ,觀光 ,建設 ,秋天 ,春天 ,花 ,名所 ,紅葉 ,雲 ,旅行 ,觀光名所 ,4月 ,11月 ,旅遊景點 ,櫻花 ,冬 ,5月 ,鮮綠 ,絶景 ,晚上 ,粉色 ,盛開 ,陽光明媚 ,公園 ,雪",,4.2,日本、〒920-0937 石川県金沢市丸の内１−1番1号
9,北海道,道央,札幌白雪祭,大通公園,43.059875,141.3477599,"Landscape ,Japan ,Nature ,Sightseeing resort ,Tourism ,Building ,Tourist attractions ,Tourist attractions ,Daytime ,Buildings ,Winter ,Night view ,City ,Night ,Hokkaido ,Landscape ,Sunny ,Snow ,Park ,Light up ,Trip ,Light ,February ,Snowscape ,White ,Castle ,Event ,Festival ,Red ,Colorful","風景 ,日本 ,自然 ,觀光地 ,觀光 ,建設 ,觀光名所 ,中午 ,旅遊景點 ,建築物 ,冬 ,街 ,夜景 ,晚上 ,北海道 ,景色 ,陽光明媚 ,公園 ,雪 ,亮燈 ,旅 ,光 ,2月 ,雪景 ,白色 ,城 ,行事 ,祭典 ,紅 ,彩色的",,4.2,日本、〒060-0042 北海道札幌市中央区大通西７丁目
10,關東,東京,高尾山,高尾山,35.6254126,139.2437385,"Landscape ,Japan ,Nature ,Blue sky ,Sightseeing resort ,Tree ,Tourism ,Autumn ,Spring ,Green ,Mountain ,Flower ,Summer ,Noted place ,Plant ,Travel ,Tourist attractions ,Tourist attractions ,May ,Green ,June ,Temple ,Road ,Shrine ,Trip ,Forest ,Tokyo Metropolitan Area ,Kanto ,Leaf ,Historic building","風景 ,日本 ,自然 ,藍藍的天空 ,觀光地 ,木頭 ,觀光 ,秋天 ,春天 ,綠色 ,山 ,花 ,夏 ,名所 ,植物 ,旅行 ,觀光名所 ,旅遊景點 ,5月 ,綠色 ,6月 ,寺 ,道路 ,神社 ,旅 ,森 ,東京都 ,關東 ,歷史建築 ,葉",,4.3,日本、〒193-0844 東京都八王子市高尾町 高尾山
14,關東,東京,東京車站,東京駅,35.6812362,139.7671248,"Landscape ,Japan ,Blue sky ,Sunny ,Sightseeing resort ,Tourism ,Building ,Noted place ,Cloud ,Travel ,November ,Buildings ,Winter ,Water surface ,Night view ,City ,Night ,October ,Light up ,Cityscape ,Morning ,Trip ,Asia ,Water ,Light ,Tokyo Metropolitan Area ,Fine weather ,Kanto ,December ,Townscape","風景 ,日本 ,藍藍的天空 ,晴天 ,觀光地 ,觀光 ,建設 ,名所 ,雲 ,旅行 ,11月 ,建築物 ,冬 ,水面 ,街 ,夜景 ,晚上 ,10月 ,亮燈 ,街燈 ,早上 ,旅 ,亞洲 ,水 ,光 ,東京都 ,晴天 ,關東 ,12月 ,市區街道",,4.3,日本、東京都千代田区丸の内１丁目
18,中部,金澤,長町武家屋敷跡,長町武家屋敷跡,36.5636094,136.6507665,"Landscape ,Japan ,Sightseeing resort ,Tourism ,Noted place ,Travel ,Tourist attractions ,Winter ,May ,Landscape ,Snow ,June ,History ,Garden ,December ,Townscape ,Hokuriku ,Japanese-style ,Landscape ,Japanese garden ,Garden ,Stone path ,Ishikawa Prefecture ,Kanazawa ,Kanazawa-shi ,Excursion ,Samurai residence ,Samurai ,Nagamachi Samurai Houses ,Earthen walls","風景 ,日本 ,觀光地 ,觀光 ,名所 ,旅行 ,旅遊景點 ,冬 ,5月 ,景色 ,雪 ,6月 ,歷史 ,花園 ,12月 ,市區街道 ,北陸 ,日本風格 ,景觀 ,日本庭園 ,花園 ,石疊道路 ,石川縣 ,金澤 ,金澤市 ,遠足 ,老武士住宅 ,武士 ,長町武士房子 ,土牆",,4,日本、〒920-0865 石川県金沢市長町３
19,北海道,道央,大通公園,大通公園,43.059875,141.3477599,"Landscape ,Japan ,Nature ,Blue sky ,Sunny ,Sightseeing resort ,Tourism ,Building ,Autumn ,Green ,Flower ,Summer ,Noted place ,Autumn leaves ,Cloud ,Plant ,Travel ,Tourist attractions ,Early summer ,Tourist attractions ,Daytime ,Buildings ,Night view ,City ,Night ,Hokkaido ,October ,Sunny ,Park ,Light up","風景 ,日本 ,自然 ,藍藍的天空 ,晴天 ,觀光地 ,觀光 ,建設 ,秋天 ,綠色 ,花 ,夏 ,名所 ,紅葉 ,雲 ,植物 ,旅行 ,觀光名所 ,初夏 ,中午 ,旅遊景點 ,建築物 ,街 ,夜景 ,晚上 ,北海道 ,10月 ,陽光明媚 ,公園 ,亮燈",,4.2,日本、〒060-0042 北海道札幌市中央区大通西７丁目
23,北海道,道央,小樽運河,小樽運河,43.1979638,141.0031005,"Landscape ,Japan ,Blue sky ,Sunny ,Sightseeing resort ,Tourism ,Building ,Summer ,Noted place ,Travel ,Tourist attractions ,Daytime ,Buildings ,Night view ,City ,Night ,River ,Hokkaido ,Landscape ,Sunny ,Snow ,Light up ,Cityscape ,July ,Trip ,Asia ,September ,Historic site ,Fine weather ,Historic building","風景 ,日本 ,藍藍的天空 ,晴天 ,觀光地 ,觀光 ,建設 ,夏 ,名所 ,旅行 ,中午 ,旅遊景點 ,建築物 ,街 ,夜景 ,晚上 ,河 ,北海道 ,景色 ,陽光明媚 ,雪 ,亮燈 ,街燈 ,7月 ,旅 ,9月 ,亞洲 ,歷史遺址 ,晴天 ,歷史建築",,4.1,日本、〒047-0007 北海道小樽市港町５
27,北海道,道南,函館山,函館山,41.7592941,140.703917,"Landscape ,Nature ,Blue sky ,Sunny ,Sightseeing resort ,Tourism ,Mountain ,Noted place ,Travel ,Tourist attractions ,Sea ,Tourist attractions ,May ,Superb view ,City ,Hokkaido ,Sunny ,Fine weather ,Townscape ,View ,City ,View ,Viewing platform ,Port ,View ,Hakodate-shi ,Ropeway ,Mt. Hakodate","風景 ,自然 ,藍藍的天空 ,晴天 ,觀光地 ,觀光 ,山 ,名所 ,旅行 ,觀光名所 ,海 ,旅遊景點 ,5月 ,絶景 ,街 ,北海道 ,陽光明媚 ,晴天 ,市區街道 ,展望 ,都市 ,眺望 ,展望台 ,港 ,眺望 ,函館市 ,空中纜車 ,函館山",,4.5,日本、〒040-0000 北海道函館市函館山
31,北海道,道南,五稜郭,特別史跡五稜郭跡,41.7971839,140.7568306,"Landscape ,Japan ,Nature ,Blue sky ,Sunny ,Sightseeing resort ,Tree ,Tourism ,Building ,Spring ,Green ,Flower ,Noted place ,Cloud ,Plant ,Travel ,April ,Tourist attractions ,Cherry ,Winter ,Night view ,Pink ,In full bloom ,Hokkaido ,October ,Landscape ,Snow ,Park ,Light up ,Cityscape","風景 ,日本 ,自然 ,藍藍的天空 ,晴天 ,觀光地 ,木頭 ,觀光 ,建設 ,春天 ,綠色 ,花 ,名所 ,雲 ,植物 ,旅行 ,4月 ,旅遊景點 ,櫻花 ,冬 ,夜景 ,粉色 ,盛開 ,北海道 ,10月 ,景色 ,公園 ,雪 ,亮燈 ,街燈",,4.4,日本、〒040-0001 北海道函館市五稜郭町４４
32,關西,大阪,道頓堀,道頓堀,34.6687235,135.5012953,"Landscape ,Japan ,Sightseeing resort ,Tourism ,Noted place ,Travel ,Tourist attractions ,Night view ,City ,Night ,Light up ,Cityscape ,August ,Trip ,Asia ,February ,Kinki ,Kansai ,Townscape ,City ,Building ,Large city ,City landscape ,Osaka Prefecture ,Osaka-shi ,Store ,Shopping street ,Osaka ,Busy downtown street ,Chuo-ku","風景 ,日本 ,觀光地 ,觀光 ,名所 ,旅行 ,旅遊景點 ,街 ,夜景 ,晚上 ,亮燈 ,街燈 ,8月 ,旅 ,亞洲 ,2月 ,近畿 ,市區街道 ,關西 ,都市 ,大樓 ,都市風景 ,都會 ,大阪府 ,大阪市 ,商店 ,商店街 ,大阪 ,繁華街 ,中央區",,4.3,日本、〒542-0071 大阪府大阪市中央区道頓堀１丁目
36,關西,大阪,大阪城公園,大阪城公園,34.686669,135.5259966,"Japan ,Building ,November ,Buildings ,Castle ,Beautiful ,Architecture ,Castle building ,Architectural structure ,Old ,Osaka ,Historical ,Osaka Castle","日本 ,建設 ,11月 ,建築物 ,城 ,漂亮 ,建築 ,城 ,建築物 ,老 ,大阪 ,歴史的 ,大阪城",,4.3,日本、〒540-0002 大阪府大阪市中央区大阪城１
40,沖繩,沖繩,沖繩美麗海水族館,沖縄美ら海水族館,26.694158,127.877932,"Landscape ,Japan ,Nature ,Sightseeing resort ,Tourism ,Summer ,Travel ,Sea ,Blue ,Water ,February ,December ,March ,January ,Tourists ,Okinawa Prefecture ,Animal ,Mid summer ,Okinawa ,Creature ,Tropical ,Resort ,Underwater ,Fish ,Swim ,Couple ,Ryukyu ,Water tank ,Underwater ,Aquarium","風景 ,日本 ,自然 ,觀光地 ,觀光 ,夏 ,旅行 ,海 ,藍色 ,水 ,2月 ,12月 ,3月 ,1 月 ,觀光客 ,沖繩縣 ,動物 ,盛夏 ,沖繩 ,生物 ,南國 ,度假村 ,水中 ,魚 ,游泳 ,情侶 ,琉球 ,水箱 ,海中 ,水族館",,4.5,日本、〒905-0206 沖縄県国頭郡本部町石川４２４
41,沖繩,沖繩,首里城,首里城,26.2170135,127.7195208,"Landscape ,Sightseeing resort ,Tourism ,Noted place ,Tourist attractions ,Tourist attractions ,November ,Night ,October ,Light up ,World heritage site ,History ,September ,World cultural heritage ,Historic building ,Scenic spot ,Castle ,Blue ,Red ,Okinawa Prefecture ,Ruined castle ,Okinawa ,Tropical ,Resort ,Cultural property ,Noted places of historic interest ,Festival ,Ryukyu ,Naha-shi","風景 ,觀光地 ,觀光 ,名所 ,觀光名所 ,11月 ,旅遊景點 ,晚上 ,10月 ,亮燈 ,世界文化遺產 ,歷史 ,9月 ,世界文化遺產 ,歷史建築 ,城 ,風景名勝區 ,藍色 ,紅 ,沖繩縣 ,城址 ,沖繩 ,南國 ,度假村 ,文化財 ,名所遺跡 ,琉球 ,祭典 ,那霸",,4.2,日本、〒903-0815 沖縄県那覇市首里金城町１丁目２
45,關西,京都,鴨川納涼床,鴨川納涼床,35.0053447,135.7713594,"Landscape ,Japan ,Sunny ,Sightseeing resort ,Tourism ,Building ,Summer ,Noted place ,Travel ,Tourist attractions ,Early summer ,Tourist attractions ,Daytime ,May ,Night view ,Night ,River ,Cityscape ,June ,Kyoto Prefecture ,Trip ,Kyoto-shi ,Kyoto ,Fine weather ,Harmony ,Townscape ,Kansai ,Torrent ,Japanese-style ,Clear stream","風景 ,日本 ,晴天 ,觀光地 ,觀光 ,建設 ,夏 ,名所 ,旅行 ,觀光名所 ,初夏 ,中午 ,旅遊景點 ,5月 ,夜景 ,晚上 ,河 ,街燈 ,6月 ,京都府 ,旅 ,京都市 ,京都 ,晴天 ,和 ,市區街道 ,關西 ,溪流 ,日本風格 ,清流",,4.4,日本、〒604-0922 京都府京都市中京区東生洲町４８９
46,關東,橫濱,橫濱港區未來,みなとみらい駅,35.4572221,139.6329595,,,,4.2,日本、〒220-0012 神奈川県横浜市西区みなとみらい３丁目５
47,關東,橫濱,中華街,横浜中華街,35.4423591,139.6463881,"Landscape ,Japan ,Sunny ,Sightseeing resort ,Tourism ,Noted place ,Travel ,Tourist attractions ,Early summer ,Tourist attractions ,November ,Daytime ,Night view ,City ,Night ,Sunny ,Light up ,Cityscape ,June ,Trip ,Asia ,Fine weather ,Kanto ,December ,Townscape ,Kanagawa Prefecture ,City ,Tourists ,Kanagawa ,Gate","風景 ,日本 ,晴天 ,觀光地 ,觀光 ,名所 ,旅行 ,觀光名所 ,初夏 ,11月 ,中午 ,旅遊景點 ,街 ,夜景 ,晚上 ,陽光明媚 ,亮燈 ,街燈 ,6月 ,旅 ,亞洲 ,晴天 ,關東 ,12月 ,市區街道 ,神奈川縣 ,都市 ,觀光客 ,門 ,神奈川",,4,日本、〒231-0023 神奈川県横浜市中区山下町
48,關東,箱根,箱根登山鐵道,早雲山駅,35.246463,139.035595,"Landscape ,Japan ,Nature ,Sightseeing resort ,Tourism ,Green ,Mountain ,Flower ,Summer ,Plant ,Travel ,Early summer ,May ,Fresh green ,Superb view ,Pink ,In full bloom ,Landscape ,June ,July ,Trip ,Valley, Canyon, Gorge ,Vehicle ,Kanto ,Leaf ,Kanagawa Prefecture ,Torrent ,Hot Spring ,Countryside ,Tree","風景 ,日本 ,自然 ,觀光地 ,觀光 ,綠色 ,山 ,花 ,夏 ,植物 ,旅行 ,初夏 ,5月 ,鮮綠 ,絶景 ,粉色 ,盛開 ,景色 ,7月 ,6月 ,旅 ,溪谷 ,遊樂設施 ,關東 ,葉 ,神奈川縣 ,溪流 ,溫泉 ,田舎 ,樹木",,3.8,日本
52,關東,箱根,蘆之湖,芦ノ湖,35.2095674,139.0034626,"Landscape ,Nature ,Tourism ,Winter ,Landscape ,Sunny ,Lake ,February ,World cultural heritage ,Fine weather ,Cultural heritage ,Mt. Fuji ,Sunrise glow ,Torii ,Surface of a lake ,Morning sun ,Dawn ,Early in the morning ,Snowcap ,Fuji ,Symmetry ,Lake Ahinoko ,Midwinter ,Red Fuji ,Mirror surface ,Inverted image of Mt. Fuji ,Crater","風景 ,自然 ,觀光 ,冬 ,景色 ,陽光明媚 ,湖 ,2月 ,世界文化遺產 ,晴天 ,文化遺產 ,富士山 ,朝霞 ,鳥居 ,湖面 ,朝日 ,黎明 ,一大早 ,冠雪 ,富士 ,對稱 ,入冬 ,蘆之湖 ,赤富士 ,鏡面 ,逆富士 ,火山口",,4.3,日本、〒250-0522 神奈川県足柄下郡箱根町元箱根 芦ノ湖
56,關東,鎌倉,鶴岡八幡宮,鶴岡八幡宮,35.3260978,139.5564131,"Landscape ,Japan ,Nature ,Blue sky ,Sunny ,Sightseeing resort ,Tree ,Tourism ,Building ,Spring ,Noted place ,Cloud ,Travel ,Tourist attractions ,Tourist attractions ,November ,Winter ,Fresh green ,Night view ,Night ,October ,Sunny ,Light up ,Green ,Blue ,Temple ,History ,Shrine ,Light ,February","風景 ,日本 ,自然 ,藍藍的天空 ,晴天 ,觀光地 ,木頭 ,觀光 ,建設 ,春天 ,名所 ,雲 ,旅行 ,觀光名所 ,11月 ,旅遊景點 ,冬 ,鮮綠 ,夜景 ,晚上 ,10月 ,陽光明媚 ,亮燈 ,藍色 ,綠色 ,寺 ,歷史 ,神社 ,光 ,2月",,4.3,日本、〒248-8588 神奈川県鎌倉市雪ノ下２丁目１−３１
60,關東,鎌倉,鎌倉大佛,鎌倉大仏,35.3167125,139.5356989,"Landscape ,Japan ,Blue sky ,Sightseeing resort ,Tourism ,Autumn ,Noted place ,Autumn leaves ,Cloud ,Travel ,Tourist attractions ,Tourist attractions ,Cherry ,Landscape ,Light up ,Green ,August ,Blue ,Temple ,Historic building ,Kanto ,Harmony ,December ,March ,White ,Kanagawa Prefecture ,Buddhist temples and Shinto shrines ,Cherry blossom ,Cherry blossom ,Landscape","風景 ,日本 ,藍藍的天空 ,觀光地 ,觀光 ,秋天 ,名所 ,紅葉 ,雲 ,旅行 ,觀光名所 ,旅遊景點 ,櫻花 ,景色 ,亮燈 ,藍色 ,綠色 ,8月 ,寺 ,關東 ,歷史建築 ,12月 ,和 ,3月 ,白色 ,神奈川縣 ,寺社佛閣 ,櫻花 ,櫻花 ,景觀",,4.3,日本、〒248-0016 神奈川県鎌倉市長谷４丁目２−２８
64,關東,日光,日光東照宮,日光東照宮,36.7571715,139.599984,"Landscape ,Japan ,Nature ,Sunny ,Sightseeing resort ,Tourism ,Building ,Autumn ,Green ,Mountain ,Noted place ,Travel ,Tourist attractions ,Tourist attractions ,Buildings ,Winter ,May ,River ,October ,Bridge ,August ,World heritage site ,Shrine ,Water ,World cultural heritage ,Historic site ,Kanto ,Historic building ,Cultural heritage ,Grounds of a shrine","風景 ,日本 ,自然 ,晴天 ,觀光地 ,觀光 ,建設 ,秋天 ,綠色 ,山 ,名所 ,旅行 ,觀光名所 ,旅遊景點 ,建築物 ,冬 ,5月 ,河 ,10月 ,橋 ,8月 ,世界文化遺產 ,神社 ,水 ,世界文化遺產 ,歷史遺址 ,關東 ,歷史建築 ,文化遺產 ,境内",,4.4,日本、〒321-1431 栃木県日光市山内２３０１
68,關西,京都,二條城,元離宮二条城,35.0142299,135.748218,"Landscape ,Japan ,Nature ,Blue sky ,Sunny ,Sightseeing resort ,Tourism ,Building ,Autumn ,Spring ,Noted place ,Autumn leaves ,Cloud ,Travel ,Tourist attractions ,April ,Tourist attractions ,November ,Cherry ,Night view ,Night ,In full bloom ,Landscape ,Sunny ,Light up ,July ,World heritage site ,History ,Kyoto Prefecture ,Shrine","風景 ,日本 ,自然 ,藍藍的天空 ,晴天 ,觀光地 ,觀光 ,建設 ,秋天 ,春天 ,名所 ,紅葉 ,雲 ,旅行 ,觀光名所 ,4月 ,11月 ,旅遊景點 ,櫻花 ,夜景 ,晚上 ,盛開 ,景色 ,陽光明媚 ,亮燈 ,7月 ,世界文化遺產 ,歷史 ,京都府 ,神社",,4.4,日本、〒604-8301 京都府京都市中京区二条城町５４１
72,關西,京都,京都御所,京都御所,35.0254135,135.7621246,"Japan ,Blue sky ,Autumn ,Spring ,Autumn leaves ,April ,November ,Cherry ,In full bloom ,Kyoto-shi ,Kyoto ,Yellow leaf ,Fine weather ,March ,Japanese maple ,Cherry blossom ,Temples and shrines ,Ancient city ,Autumn with beautiful leaves ,Ginkgo ,Fine autumn weather ,Fallen leaf ,Cherry blossom in full bloom ,Ninna-ji Temple ,Japanese zelkova ,Kyoto Imperial Palace ,Kyoto Imperial Gardens ,Cherry blossoms of Omuro","日本 ,藍藍的天空 ,秋天 ,春天 ,紅葉 ,4月 ,11月 ,櫻花 ,盛開 ,京都市 ,黄葉 ,京都 ,晴天 ,3月 ,紅葉 ,櫻花 ,寺院 ,古都 ,錦秋 ,銀杏 ,落葉 ,秋季寧添 ,櫻花爛漫 ,仁和寺 ,櫸樹 ,京都御所 ,京都御苑 ,櫻花",,4.4,日本、〒602-0881 京都府京都市上京区京都御苑３
73,關西,京都,東福寺,東福寺,34.9767101,135.7749674,"Landscape ,Japan ,Nature ,Blue sky ,Sunny ,Sightseeing resort ,Tourism ,Building ,Autumn ,Green ,Summer ,Noted place ,Autumn leaves ,Cloud ,Tourist attractions ,Early summer ,Tourist attractions ,November ,Winter ,Fresh green ,October ,Landscape ,Sunny ,Snow ,August ,Temple ,History ,Kyoto Prefecture ,Trip ,Kyoto-shi","風景 ,日本 ,自然 ,藍藍的天空 ,晴天 ,觀光地 ,觀光 ,建設 ,秋天 ,綠色 ,夏 ,名所 ,紅葉 ,雲 ,觀光名所 ,初夏 ,11月 ,旅遊景點 ,冬 ,鮮綠 ,10月 ,景色 ,陽光明媚 ,雪 ,8月 ,寺 ,歷史 ,京都府 ,旅 ,京都市",,4.4,日本、〒605-0981 京都府京都市東山区本町７７８
77,關西,京都,龍安寺,龍安寺,35.0344943,135.7182634,"Landscape ,Japan ,Nature ,Sunny ,Sightseeing resort ,Tree ,Tourism ,Autumn ,Spring ,Autumn leaves ,Plant ,Tourist attractions ,April ,November ,Cherry ,Winter ,In full bloom ,Landscape ,Snow ,Beautiful ,Temple ,World heritage site ,Kyoto Prefecture ,Kyoto-shi ,Kyoto ,World cultural heritage ,Historic site ,Garden ,Harmony ,Kinki","風景 ,日本 ,自然 ,晴天 ,觀光地 ,木頭 ,觀光 ,秋天 ,春天 ,紅葉 ,植物 ,觀光名所 ,4月 ,11月 ,櫻花 ,冬 ,盛開 ,景色 ,雪 ,寺 ,美麗 ,世界文化遺產 ,京都府 ,京都市 ,京都 ,世界文化遺產 ,歷史遺址 ,花園 ,12月 ,和",,4.4,日本、〒616-8001 京都府京都市右京区龍安寺御陵ノ下町１３
78,關東,日光,華嚴瀑布(華嚴瀧),華厳の滝,36.7379925,139.5020685,"Landscape ,Japan ,Nature ,Blue sky ,Sunny ,Sightseeing resort ,Tourism ,Natural landscape ,Autumn ,Spring ,Mountain ,Autumn leaves ,Cloud ,Winter ,Fresh green ,October ,Landscape ,Snow ,June ,Beautiful ,World heritage site ,Lake ,Asia ,Water ,World cultural heritage ,Waterfall ,Scenic spot ,January ,Snow coverage ,Beautiful","風景 ,日本 ,自然 ,藍藍的天空 ,晴天 ,觀光地 ,觀光 ,自然風景 ,秋天 ,春天 ,山 ,紅葉 ,雲 ,冬 ,鮮綠 ,10月 ,景色 ,雪 ,6月 ,美麗 ,世界文化遺產 ,湖 ,亞洲 ,水 ,世界文化遺產 ,瀑布 ,風景名勝區 ,1 月 ,積雪 ,漂亮",,4.3,日本、〒321-1661 栃木県日光市中宮祠
79,關東,日光,小田代原,小田代ヶ原,36.7754665,139.4252593,"Landscape ,Nature ,Tree ,Autumn ,Autumn leaves ,Morning ,September ,Japanese maple ,Plateau, Highlands ,Trekking ,Hiking ,Nikko, Sunlight ,Nikko-shi ,Marsh ,Tochigi ,Early autumn ,White birch ,Oku-nikko ,Yellow leaves of grass ,Odashirogahara ,Noble woman ,Odashirogahara ,White birch ,Odashirogahara","風景 ,自然 ,木頭 ,秋天 ,紅葉 ,早上 ,9月 ,紅葉 ,高原 ,遠足  ,健行 ,陽光 ,日光市 ,沼澤 ,栃木 ,初秋 ,白樺 ,奧日光 ,紅草 ,小田代原 ,貴婦人 ,小田代原 ,白樺 ,小田代原",,3.8,日本、〒321-1661 栃木県日光市中宮祠
80,中部,富士山,富士山本宮淺間大社,富士山本宮浅間大社,35.2271964,138.6102114,"Landscape ,Japan ,Blue sky ,Sunny ,Sightseeing resort ,Tourism ,Natural landscape ,Spring ,Flower ,Noted place ,Autumn leaves ,Plant ,Travel ,Tourist attractions ,April ,Tourist attractions ,Daytime ,Cherry ,Water surface ,Superb view ,Night view ,Night ,Pink ,In full bloom ,Landscape ,Sunny ,Snow ,Light up ,Blue ,Red","風景 ,日本 ,藍藍的天空 ,晴天 ,觀光地 ,觀光 ,自然風景 ,春天 ,花 ,名所 ,紅葉 ,植物 ,旅行 ,觀光名所 ,4月 ,中午 ,旅遊景點 ,櫻花 ,水面 ,絶景 ,夜景 ,晚上 ,粉色 ,盛開 ,景色 ,陽光明媚 ,雪 ,亮燈 ,藍色 ,紅色",,4.4,日本、〒418-0067 静岡県富士宮市宮町１−１
84,中部,富士山,河口湖,河口湖,35.5170946,138.7517787,"Landscape ,Nature ,Blue sky ,Sunny ,Sightseeing resort ,Autumn ,Mountain ,Flower ,Noted place ,Cloud ,Plant ,November ,Water surface ,May ,Pink ,Landscape ,Sunny ,Snow ,Green ,Blue ,Beautiful ,World heritage site ,Morning ,Lake ,September ,World cultural heritage ,Flower garden ,Snowscape ,March ,Fresh","風景 ,自然 ,藍藍的天空 ,晴天 ,觀光地 ,秋天 ,山 ,花 ,名所 ,雲 ,植物 ,11月 ,水面 ,5月 ,粉色 ,景色 ,陽光明媚 ,雪 ,藍色 ,綠色 ,美麗 ,世界文化遺產 ,早上 ,湖 ,9月 ,世界文化遺產 ,花卉園 ,雪景 ,3月 ,清爽",,4.5,日本、山梨県南都留郡富士河口湖町 河口湖
88,中部,富士山,青木原樹海,青木ヶ原樹海,35.4625901,138.6543757,"Landscape ,Japan ,Nature ,Sunny ,Sightseeing resort ,Tourism ,Autumn ,Green ,Mountain ,Noted place ,Autumn leaves ,Plant ,Travel ,Tourist attractions ,Tourist attractions ,Daytime ,Winter ,Fresh green ,Landscape ,Snow ,Green ,Red ,World heritage site ,Yellow ,Trip ,Forest ,Asia ,Water ,September ,Light","風景 ,日本 ,自然 ,晴天 ,觀光地 ,觀光 ,秋天 ,綠色 ,山 ,名所 ,紅葉 ,植物 ,旅行 ,觀光名所 ,中午 ,旅遊景點 ,冬 ,鮮綠 ,景色 ,雪 ,綠色 ,紅色 ,世界文化遺產 ,黃色 ,旅 ,森 ,9月 ,亞洲 ,水 ,光",,4.1,日本、〒401-0300 山梨県南都留郡富士河口湖町鳴沢
92,中部,富士山,山中湖,山中湖,35.4185515,138.8774803,"Landscape ,Japan ,Nature ,Blue sky ,Sunny ,Autumn ,Mountain ,Cloud ,November ,Winter ,Water surface ,Superb view ,Landscape ,Sunny ,Snow ,World heritage site ,Morning ,Lake ,January ,Mt. Fuji ,Yamanashi Prefecture ,Surface of a lake ,Fog ,Mountain climbing ,Hiking ,Mountain ,Outdoor ,Sea of clouds ,Snowcap ,Late autumn","風景 ,日本 ,自然 ,藍藍的天空 ,晴天 ,秋天 ,山 ,雲 ,11月 ,冬 ,水面 ,絶景 ,景色 ,陽光明媚 ,雪 ,世界文化遺產 ,早上 ,湖 ,1 月 ,富士山 ,山梨縣 ,湖面 ,霧 ,登山 ,健行 ,戶外 ,山岳 ,雲海 ,冠雪 ,晩秋",,4.3,日本、山梨県南都留郡山中湖村 山中湖
96,中部,富士山,忍野八海,忍野八海,35.4601292,138.8328532,"Landscape ,Japan ,Autumn ,Noted place ,Travel ,November ,Night ,Landscape ,Evening ,Mt. Fuji ,Countryside ,Landscape ,Home ,City ,Japanese ,Dusk ,Culture ,Architecture ,Sunset ,Healing ,View ,Fuji ,Volcano ,Old ,Twilight ,Village ,Wisteria ,Twilight ,Twilight ,Healing","風景 ,日本 ,秋天 ,名所 ,旅行 ,11月 ,晚上 ,景色 ,傍晚 ,富士山 ,田舎 ,景觀 ,家 ,都市 ,日本人 ,傍晚 ,文化 ,建築 ,日落 ,癒合 ,眺望 ,富士 ,火山 ,老 ,黄昏 ,村莊 ,藤 ,暮光之城 ,日暮 ,癒合",,4,日本、〒401-0511 山梨県南都留郡忍野村忍草
100,中國,廣島,原爆穹頂,原爆ドーム,34.395483,132.453592,"Landscape ,Japan ,Nature ,Blue sky ,Sunny ,Sightseeing resort ,Tree ,Tourism ,Building ,Green ,Summer ,Noted place ,Travel ,Tourist attractions ,April ,Early summer ,Tourist attractions ,Daytime ,Water surface ,Fresh green ,Night view ,City ,River ,October ,Landscape ,Sunny ,Park ,Light up ,Cityscape ,Green","風景 ,日本 ,自然 ,藍藍的天空 ,晴天 ,觀光地 ,木頭 ,觀光 ,建設 ,綠色 ,夏 ,名所 ,旅行 ,觀光名所 ,4月 ,初夏 ,中午 ,旅遊景點 ,水面 ,鮮綠 ,街 ,夜景 ,河 ,10月 ,景色 ,陽光明媚 ,公園 ,亮燈 ,街燈 ,綠色",,4.6,日本、〒730-0051 広島県広島市中区大手町１−１０
101,關西,滋賀,琵琶湖疏水櫻,琵琶湖疏水,35.0124719,135.8580618,"Landscape ,Japan ,Nature ,Blue sky ,Sightseeing resort ,Tourism ,Spring ,Flower ,Noted place ,Travel ,April ,Cherry ,Night view ,In full bloom ,Snow ,Light up ,Trip ,Kyoto-shi ,Asia ,Water ,Fine weather ,Kinki ,Kansai ,January ,Cherry blossom ,River ,Kinki Region ,Prunus yedoensis ,Roadside cherry trees ,Shiga Prefecture","風景 ,日本 ,自然 ,藍藍的天空 ,觀光地 ,觀光 ,春天 ,花 ,名所 ,旅行 ,4月 ,櫻花 ,夜景 ,盛開 ,雪 ,亮燈 ,旅 ,京都市 ,亞洲 ,水 ,晴天 ,近畿 ,關西 ,1 月 ,櫻花 ,河川 ,染井吉野櫻 ,近畿地區 ,櫻花行道樹 ,滋賀縣",,4.1,日本、〒520-0034 滋賀県大津市三井寺町７
102,九州,鹿兒島,白谷雲水峽,白谷雲水峡,30.3799415,130.5741972,"Landscape ,Nature ,Sightseeing resort ,Green ,Plant ,April ,Fresh green ,River ,World heritage site ,Forest ,Water ,September ,Kyushu ,Forest ,Torrent ,Flow ,Clear stream ,Power spot ,Moss ,Rock surface ,Kagoshima Prefecture ,Virgin forest ,World natural heritage site ,Rain ,Yakushima Island ,Momentum ,Shiratani Unsuikyo ,Yakusugi (Yakushima cedar) ,Laurel forest","風景 ,自然 ,觀光地 ,綠色 ,植物 ,4月 ,鮮綠 ,河 ,世界文化遺產 ,森 ,9月 ,水 ,九州 ,森林 ,溪流 ,流 ,清流 ,能量景點 ,苔 ,岩肌 ,鹿兒島縣 ,原生林 ,世界自然文化遺產 ,雨 ,屋久島 ,氣勢 ,白谷雲水峽 ,屋久杉樹 ,照葉樹林",,4.7,日本、〒891-4200 鹿児島県熊毛郡屋久島町宮之浦
106,中部,靜岡,寸又峽,寸又峡,35.1819971,138.1271075,"Landscape ,Nature ,Blue sky ,Sunny ,Sightseeing resort ,Tree ,Tourism ,Natural landscape ,Autumn ,Spring ,Green ,Summer ,Noted place ,Autumn leaves ,Travel ,April ,Early summer ,November ,May ,Fresh green ,Superb view ,Landscape ,Sunny ,Bridge ,Yellow ,Lake ,Scenic spot ,Forest ,Hot Spring ,Tree","風景 ,自然 ,藍藍的天空 ,晴天 ,觀光地 ,木頭 ,觀光 ,自然風景 ,秋天 ,春天 ,綠色 ,夏 ,名所 ,紅葉 ,旅行 ,4月 ,初夏 ,11月 ,5月 ,鮮綠 ,絶景 ,景色 ,陽光明媚 ,橋 ,黃色 ,湖 ,森林 ,風景名勝區 ,溫泉 ,樹木",,4.6,日本、〒428-0402 静岡県榛原郡川根本町犬間 寸又峡
107,東北,岩手,錦秋湖,道の駅 錦秋湖,39.3003219,140.8761161,"Landscape ,Japan ,Nature ,Blue sky ,Sunny ,Sightseeing resort ,Tree ,Tourism ,Autumn ,Spring ,Green ,Mountain ,Noted place ,Autumn leaves ,Plant ,Travel ,Tourist attractions ,Early summer ,Tourist attractions ,Winter ,Water surface ,May ,Fresh green ,River ,October ,Landscape ,Snow ,Tohoku ,Bridge ,Red","風景 ,日本 ,自然 ,藍藍的天空 ,晴天 ,觀光地 ,木頭 ,觀光 ,秋天 ,春天 ,綠色 ,山 ,名所 ,紅葉 ,植物 ,旅行 ,觀光名所 ,初夏 ,旅遊景點 ,冬 ,水面 ,5月 ,鮮綠 ,河 ,10月 ,景色 ,雪 ,東北 ,橋 ,紅色",,3.5,日本、〒029-5500 岩手県和賀郡西和賀町杉名畑４４地割２６４
108,中部,岐阜,金華山,金華山,35.4333723,136.7811761,"Landscape ,Japan ,Nature ,Blue sky ,Sunny ,Sightseeing resort ,Tourism ,Building ,Spring ,Green ,Mountain ,Summer ,Noted place ,Cloud ,Travel ,Tourist attractions ,April ,Early summer ,Tourist attractions ,Daytime ,May ,Fresh green ,Superb view ,Night view ,Night ,River ,Landscape ,Sunny ,Park ,Cityscape","風景 ,日本 ,自然 ,藍藍的天空 ,晴天 ,觀光地 ,觀光 ,建設 ,春天 ,綠色 ,山 ,夏 ,名所 ,雲 ,旅行 ,觀光名所 ,4月 ,初夏 ,中午 ,旅遊景點 ,5月 ,鮮綠 ,絶景 ,夜景 ,晚上 ,河 ,景色 ,陽光明媚 ,公園 ,街燈",,4.2,日本、〒500-0000 岐阜県岐阜市槻谷 金華山
109,中部,岐阜,長良川,長良川,35.4870969,136.8414991,"Landscape ,Japan ,Nature ,Blue sky ,Sunny ,Sightseeing resort ,Tourism ,Building ,Green ,Mountain ,Summer ,Plant ,Travel ,Winter ,Fresh green ,Superb view ,Night view ,City ,Night ,River ,Landscape ,Sunny ,Cityscape ,August ,July ,History ,Evening ,Forest ,Asia ,September","風景 ,日本 ,自然 ,藍藍的天空 ,晴天 ,觀光地 ,觀光 ,建設 ,綠色 ,山 ,夏 ,植物 ,旅行 ,冬 ,鮮綠 ,絶景 ,街 ,夜景 ,晚上 ,河 ,景色 ,陽光明媚 ,街燈 ,7月 ,8月 ,歷史 ,傍晚 ,森 ,9月 ,亞洲",,3.6,日本、長良川
110,中部,岐阜,岐阜城,岐阜城,35.433918,136.7820713,"Landscape ,Japan ,Nature ,Blue sky ,Sunny ,Sightseeing resort ,Tree ,Tourism ,Building ,Autumn ,Green ,Mountain ,Autumn leaves ,Cloud ,April ,November ,Fresh green ,Landscape ,Sunny ,Blue ,History ,Asia ,Historic site ,Fine weather ,Historic building ,Kinki ,December ,Castle ,Japanese-style ,Tradition","風景 ,日本 ,自然 ,藍藍的天空 ,晴天 ,觀光地 ,木頭 ,觀光 ,建設 ,秋天 ,綠色 ,山 ,紅葉 ,雲 ,4月 ,11月 ,鮮綠 ,景色 ,陽光明媚 ,藍色 ,歷史 ,亞洲 ,歷史遺址 ,晴天 ,歷史建築 ,12月 ,近畿 ,城 ,日本風格 ,傳統",,4.1,日本、〒502-0828 岐阜県岐阜市 金華山天守閣１８ 金華山頂
111,關西,京都,圓通寺,圓通寺,35.0643868,135.7686777,"Noted place ,Tourist attractions ,Tourist attractions ,October ,Kyoto-shi ,Kyoto ,Garden ,March ,Japanese maple ,Temples and shrines ,Scenic spot ,Moss ,Ancient city ,Woman ,Edo period ,Kimono ,Sightseeing of Kyoto ,Rinzai school ,Karesansui ,Kyoto trip ,Sakyo-ku ,Mt. Hiei ,Graduation trip ,Iwakura ,Entsu-ji Temple ,Borrowing landscape ,Japanese clothes ,Kimono costume ,Detached palace ,Borrowed landscape garden","名所 ,觀光名所 ,旅遊景點 ,10月 ,京都市 ,京都 ,花園 ,3月 ,紅葉 ,寺院 ,名勝 ,苔 ,古都 ,女性 ,江戶時代 ,和服 ,京都觀光 ,京都旅行 ,臨濟宗 ,枯山水 ,左京區 ,比叡山 ,畢業旅行 ,岩倉 ,圓通寺 ,借景 ,和服 ,和裝 ,離宮 ,借景庭園",,4.4,日本、〒606-0015 京都府京都市左京区岩倉幡枝町３８９
112,關西,京都,石塀小路,石塀小路,34.9999354,135.7797946,"Landscape ,Japan ,Sightseeing resort ,Tree ,Tourism ,Building ,Autumn ,Noted place ,Autumn leaves ,Travel ,Tourist attractions ,Tourist attractions ,May ,Night view ,Night ,Landscape ,Cityscape ,August ,History ,Kyoto Prefecture ,Road ,Trip ,Kyoto-shi ,Kyoto ,Historic building ,Kinki ,Harmony ,December ,Kansai ,Townscape","風景 ,日本 ,觀光地 ,木頭 ,觀光 ,建設 ,秋天 ,名所 ,紅葉 ,旅行 ,觀光名所 ,旅遊景點 ,5月 ,夜景 ,晚上 ,景色 ,街燈 ,8月 ,歷史 ,京都府 ,道路 ,旅 ,京都市 ,京都 ,歷史建築 ,12月 ,近畿 ,和 ,市區街道 ,關西",,4.3,日本、〒605-0825 京都府京都市東山区下河原町４６３−２９
113,關東,東京,淺草寺,浅草寺,35.7147651,139.7966553,"Landscape ,Japan ,Blue sky ,Sunny ,Sightseeing resort ,Tourism ,Building ,Summer ,Noted place ,Travel ,Tourist attractions ,Daytime ,Buildings ,Night view ,City ,Night ,Sunny ,Light up ,Cityscape ,August ,July ,Temple ,Trip ,Asia ,Tokyo Metropolitan Area ,Fine weather ,Kanto ,December ,Townscape ,January","風景 ,日本 ,藍藍的天空 ,晴天 ,觀光地 ,觀光 ,建設 ,夏 ,名所 ,旅行 ,中午 ,旅遊景點 ,建築物 ,街 ,夜景 ,晚上 ,陽光明媚 ,亮燈 ,街燈 ,7月 ,8月 ,寺 ,旅 ,亞洲 ,東京都 ,晴天 ,關東 ,12月 ,市區街道 ,1 月",,4.4,日本、〒111-0032 東京都台東区浅草２丁目３−１
117,關東,東京,六義園,六義園,35.7327591,139.7477067,"Autumn leaves ,November ,Night ,Light up ,Tokyo Metropolitan Area ,December ,Japanese garden ,Late autumn ,Bunkyo-ku ,Special place of scenic beauty ,Rikugien Garden","紅葉 ,11月 ,晚上 ,亮燈 ,東京都 ,12月 ,日本庭園 ,晩秋 ,特別名勝 ,文京區 ,六義園",,4.3,日本、〒113-0021 東京都文京区本駒込６丁目１６−３
121,關東,東京,代代木公園,代々木公園,35.671736,139.6949447,"Landscape ,Japan ,Nature ,Blue sky ,Sunny ,Tree ,Autumn ,Spring ,Green ,Summer ,Autumn leaves ,Cloud ,Plant ,November ,Daytime ,Winter ,Water surface ,Fresh green ,In full bloom ,Park ,Green ,July ,Beautiful ,Red ,Yellow ,Evening ,Pond ,Water ,February ,Leaf","風景 ,日本 ,自然 ,藍藍的天空 ,晴天 ,木頭 ,秋天 ,春天 ,綠色 ,夏 ,紅葉 ,雲 ,植物 ,中午 ,11月 ,冬 ,水面 ,鮮綠 ,盛開 ,公園 ,綠色 ,7月 ,紅色 ,美麗 ,黃色 ,傍晚 ,池 ,水 ,2月 ,葉",,4.3,日本、〒151-0052 東京都渋谷区代々木神園町２−１
125,關東,東京,上野恩賜公園,上野恩賜公園,35.7153358,139.7739818,"Landscape ,Japan ,Nature ,Blue sky ,Sunny ,Sightseeing resort ,Tourism ,Building ,Spring ,Green ,Flower ,Summer ,Noted place ,Cloud ,Plant ,Travel ,Tourist attractions ,April ,Daytime ,Buildings ,Cherry ,May ,Fresh green ,Night view ,City ,Night ,Pink ,In full bloom ,Landscape ,Sunny","風景 ,日本 ,自然 ,藍藍的天空 ,晴天 ,觀光地 ,觀光 ,建設 ,春天 ,綠色 ,花 ,夏 ,名所 ,雲 ,植物 ,旅行 ,觀光名所 ,4月 ,中午 ,建築物 ,櫻花 ,5月 ,鮮綠 ,街 ,夜景 ,晚上 ,粉色 ,盛開 ,景色 ,陽光明媚",,4.3,日本、〒110-0007 東京都台東区上野公園５−２０
129,關東,東京,明治神宮,明治神宮,35.6763976,139.6993259,"Landscape ,Japan ,Nature ,Blue sky ,Sunny ,Sightseeing resort ,Tree ,Tourism ,Building ,Green ,Flower ,Noted place ,Cloud ,Plant ,Travel ,Early summer ,Tourist attractions ,Winter ,October ,Snow ,Green ,June ,Morning ,Shrine ,Forest ,Asia ,Historic site ,Tokyo Metropolitan Area ,Garden ,Harmony","風景 ,日本 ,自然 ,藍藍的天空 ,晴天 ,觀光地 ,木頭 ,觀光 ,建設 ,綠色 ,花 ,名所 ,雲 ,植物 ,旅行 ,初夏 ,旅遊景點 ,冬 ,10月 ,雪 ,綠色 ,6月 ,早上 ,神社 ,森 ,亞洲 ,歷史遺址 ,東京都 ,花園 ,和",,4.5,日本、〒151-8557 東京都渋谷区代々木神園町１−１
133,關東,東京,小石川後樂園,小石川後楽園,35.7055284,139.7492893,"Landscape ,Japan ,Nature ,Blue sky ,Sunny ,Tree ,Autumn ,Spring ,Green ,Autumn leaves ,Cloud ,Plant ,Early summer ,November ,Daytime ,Water surface ,Fresh green ,Sunny ,Park ,Bridge ,Green ,June ,Beautiful ,Yellow ,Pond ,Asia ,Water ,Tokyo Metropolitan Area ,Kanto ,Leaf","風景 ,日本 ,自然 ,藍藍的天空 ,晴天 ,木頭 ,秋天 ,春天 ,綠色 ,紅葉 ,雲 ,植物 ,初夏 ,中午 ,11月 ,水面 ,鮮綠 ,陽光明媚 ,公園 ,橋 ,綠色 ,6月 ,美麗 ,黃色 ,池 ,亞洲 ,水 ,東京都 ,關東 ,花園",,4.3,日本、〒112-0004 東京都文京区後楽１丁目６−６
137,關東,東京,台場公園,台場公園(品川台場跡),35.6335944,139.7720333,"Landscape ,Japan ,Blue sky ,Sunny ,Sightseeing resort ,Tourism ,Green ,Summer ,Noted place ,Cloud ,Travel ,Sea ,Tourist attractions ,Daytime ,City ,Sunny ,Park ,Bridge ,June ,August ,Trip ,Asia ,Tokyo Metropolitan Area ,Fine weather ,Kanto ,Townscape ,Blue ,City ,Building ,Tokyo","風景 ,日本 ,藍藍的天空 ,晴天 ,觀光地 ,觀光 ,綠色 ,夏 ,名所 ,雲 ,旅行 ,海 ,中午 ,旅遊景點 ,街 ,陽光明媚 ,公園 ,橋 ,6月 ,8月 ,旅 ,亞洲 ,東京都 ,晴天 ,關東 ,市區街道 ,藍色 ,都市 ,大樓 ,東京",,4.2,日本、〒135-0091 東京都港区台場１丁目１０
138,關東,東京,千鳥淵,千鳥ヶ淵緑道,35.6933424,139.7478117,"Landscape ,Nature ,Sunny ,Sightseeing resort ,Tourism ,Spring ,Flower ,Noted place ,Tourist attractions ,April ,Tourist attractions ,Cherry ,Water surface ,Superb view ,Night view ,Pink ,In full bloom ,Landscape ,Light up ,Beautiful ,Tokyo Metropolitan Area ,Fine weather ,March ,Beautiful ,Cherry blossom ,Cherry blossom ,Prunus yedoensis ,Stone wall ,Pink ,Bloom","風景 ,自然 ,晴天 ,觀光地 ,觀光 ,春天 ,花 ,名所 ,觀光名所 ,4月 ,旅遊景點 ,櫻花 ,水面 ,絶景 ,夜景 ,粉色 ,盛開 ,景色 ,亮燈 ,美麗 ,東京都 ,晴天 ,3月 ,漂亮 ,櫻花 ,櫻花 ,石垣 ,染井吉野櫻 ,桃色 ,盛開",,4.5,日本、〒102-0074 東京都千代田区九段南２丁目
142,九州,熊本,阿蘇山,阿蘇山,32.8985064,131.0874754,"Landscape ,Japan ,Nature ,Blue sky ,Sunny ,Sightseeing resort ,Tourism ,Mountain ,Summer ,Noted place ,Cloud ,Plant ,Travel ,Tourist attractions ,Tourist attractions ,Daytime ,Green ,August ,Trip ,Asia ,Kyushu ,Fine weather ,View ,View ,Kumamoto Prefecture ,Grass ,Glassland ,Orient ,Aso ,Kumamoto","風景 ,日本 ,自然 ,藍藍的天空 ,晴天 ,觀光地 ,觀光 ,山 ,夏 ,名所 ,雲 ,植物 ,旅行 ,觀光名所 ,中午 ,旅遊景點 ,綠色 ,8月 ,旅 ,亞洲 ,九州 ,晴天 ,展望 ,眺望 ,熊本縣 ,草 ,草原 ,東洋 ,阿蘇 ,熊本",,4.4,日本、〒869-2223 熊本県阿蘇市竹原 阿蘇山
143,九州,長崎,原城跡,原城温泉 真砂,32.6349154,130.2586829,"Landscape ,Japan ,Blue sky ,Sightseeing resort ,Tourist attractions ,Tourist attractions ,Superb view ,Sunny ,June ,Blue ,July ,World heritage site ,History ,Asia ,Kyushu ,World cultural heritage ,Historic site ,Fine weather ,Scenic spot ,Castle ,Stone wall ,Important cultural property ,Nagasaki ,Nagasaki Prefecture ,Village ,Cultural property ,Castle building ,Edo period ,Stone statue","風景 ,日本 ,藍藍的天空 ,觀光地 ,觀光名所 ,旅遊景點 ,絶景 ,陽光明媚 ,藍色 ,7月 ,6月 ,世界文化遺產 ,歷史 ,亞洲 ,九州 ,世界文化遺產 ,歷史遺址 ,晴天 ,城 ,風景名勝區 ,石垣 ,重要文化財 ,長崎 ,長崎縣 ,文化財 ,村莊 ,城 ,江戶時代 ,石像",,3.7,日本、〒859-2414 長崎県南島原市南有馬町１３３
144,九州,熊本,熊本城,熊本城,32.8061859,130.7058335,"Landscape ,Japan ,Nature ,Blue sky ,Sunny ,Sightseeing resort ,Tourism ,Building ,Autumn ,Spring ,Flower ,Travel ,November ,Cherry ,Winter ,Superb view ,Landscape ,Snow ,History ,Shrine ,Asia ,September ,Kyushu ,Historic site ,Historic building ,Snowscape ,March ,Castle ,January ,Snow coverage","風景 ,日本 ,自然 ,藍藍的天空 ,晴天 ,觀光地 ,觀光 ,建設 ,秋天 ,春天 ,花 ,旅行 ,11月 ,櫻花 ,冬 ,絶景 ,景色 ,雪 ,歷史 ,神社 ,9月 ,亞洲 ,九州 ,歷史遺址 ,歷史建築 ,雪景 ,3月 ,城 ,1 月 ,積雪",,4.4,日本、〒860-0002 熊本県熊本市中央区１丁目１
148,九州,熊本,草千里,草千里展望所,32.8849771,131.0503191,"Landscape ,Japan ,Nature ,Blue sky ,Sunny ,Sightseeing resort ,Tourism ,Autumn ,Green ,Mountain ,Summer ,Noted place ,Cloud ,Travel ,Tourist attractions ,Early summer ,Tourist attractions ,November ,Daytime ,Winter ,May ,Fresh green ,Superb view ,October ,Landscape ,Sunny ,Snow ,July ,Lake ,Trip","風景 ,日本 ,自然 ,藍藍的天空 ,晴天 ,觀光地 ,觀光 ,秋天 ,綠色 ,山 ,夏 ,名所 ,雲 ,旅行 ,觀光名所 ,初夏 ,中午 ,11月 ,旅遊景點 ,冬 ,5月 ,鮮綠 ,絶景 ,10月 ,景色 ,陽光明媚 ,雪 ,7月 ,湖 ,旅",,4.3,日本、〒869-2231 熊本県阿蘇市永草
149,關東,群馬,榛名湖,榛名湖,36.4763945,138.8674138,"Landscape ,Japan ,Blue sky ,Sunny ,Sightseeing resort ,Tourism ,Autumn ,Spring ,Autumn leaves ,Cloud ,November ,Winter ,Water surface ,May ,Fresh green ,October ,Landscape ,Snow ,Lake ,Pond ,Fine weather ,Kanto ,Snowscape ,White ,Snow coverage ,Surface of a lake ,Red ,Mountain climbing ,Trekking ,Hiking","風景 ,日本 ,藍藍的天空 ,晴天 ,觀光地 ,觀光 ,秋天 ,春天 ,紅葉 ,雲 ,11月 ,冬 ,水面 ,5月 ,鮮綠 ,10月 ,景色 ,雪 ,湖 ,池 ,晴天 ,關東 ,雪景 ,白色 ,積雪 ,湖面 ,紅 ,登山 ,遠足  ,健行",,4.1,日本、〒370-3348 群馬県高崎市榛名湖町 榛名湖
150,關東,群馬,富岡製絲場,富岡製糸場,36.255121,138.8874275,"Landscape ,Japan ,Sightseeing resort ,Tourism ,Building ,April ,Tourist attractions ,Cherry ,Night view ,October ,Light up ,June ,July ,World heritage site ,History ,World cultural heritage ,Historic site ,Kanto ,Historic building ,Cultural heritage ,Cherry blossom ,Background ,Important cultural property ,Gunma Prefecture ,Architecture ,National treasure ,Architectural structure ,Material ,Brick","風景 ,日本 ,觀光地 ,觀光 ,建設 ,4月 ,旅遊景點 ,櫻花 ,夜景 ,10月 ,亮燈 ,6月 ,7月 ,世界文化遺產 ,歷史 ,世界文化遺產 ,歷史遺址 ,關東 ,歷史建築 ,文化遺產 ,櫻花 ,背景 ,重要文化財 ,群馬縣 ,建築 ,國寶 ,建築物 ,素材 ,磚頭",,3.7,日本、〒370-2316 群馬県富岡市富岡１−１
151,關東,群馬,碓冰峠的眼鏡橋,碓氷峠,36.3446613,138.6509013,"Landscape ,Japan ,Nature ,Blue sky ,Sunny ,Sightseeing resort ,Tourism ,Autumn ,Noted place ,Autumn leaves ,Travel ,Tourist attractions ,Early summer ,Tourist attractions ,November ,Buildings ,Winter ,May ,Fresh green ,Sunny ,Snow ,Bridge ,World heritage site ,History ,Forest ,Nagano Prefecture ,February ,Historic building ,Kanto ,January","風景 ,日本 ,自然 ,藍藍的天空 ,晴天 ,觀光地 ,觀光 ,秋天 ,名所 ,紅葉 ,旅行 ,觀光名所 ,初夏 ,11月 ,旅遊景點 ,建築物 ,冬 ,5月 ,鮮綠 ,陽光明媚 ,雪 ,橋 ,世界文化遺產 ,歷史 ,森 ,長野縣 ,2月 ,關東 ,歷史建築 ,1 月",,4.1,日本、〒389-0102 長野県北佐久郡軽井沢町
152,關東,群馬,尾瀨之原,尾瀬国立公園,36.9525734,139.3018763,"Landscape ,Japan ,Nature ,Blue sky ,Sunny ,Sightseeing resort ,Tree ,Tourism ,Autumn ,Green ,Mountain ,Summer ,Noted place ,Autumn leaves ,Cloud ,Plant ,Travel ,Tourist attractions ,Early summer ,Tourist attractions ,Daytime ,Water surface ,Fresh green ,Superb view ,October ,Landscape ,Sunny ,Snow ,Park ,Green","風景 ,日本 ,自然 ,藍藍的天空 ,晴天 ,觀光地 ,木頭 ,觀光 ,秋天 ,綠色 ,山 ,夏 ,名所 ,紅葉 ,雲 ,植物 ,旅行 ,觀光名所 ,初夏 ,中午 ,旅遊景點 ,水面 ,鮮綠 ,絶景 ,10月 ,景色 ,陽光明媚 ,公園 ,雪 ,藍色",,4.6,日本、〒378-0411 群馬県利根郡片品村
153,中部,靜岡,三保海岸,三保の松原,34.9940656,138.5227956,"Landscape ,Japan ,Nature ,Blue sky ,Sunny ,Sightseeing resort ,Tourism ,Natural landscape ,Green ,Mountain ,Noted place ,Cloud ,Plant ,Tourist attractions ,Sea ,Tourist attractions ,November ,Daytime ,Winter ,Water surface ,Superb view ,Landscape ,Sunny ,Snow ,Blue ,Beautiful ,World heritage site ,Coast ,World cultural heritage ,Fine weather","風景 ,日本 ,自然 ,藍藍的天空 ,晴天 ,觀光地 ,觀光 ,自然風景 ,綠色 ,山 ,名所 ,雲 ,植物 ,觀光名所 ,海 ,11月 ,中午 ,旅遊景點 ,冬 ,水面 ,絶景 ,景色 ,陽光明媚 ,雪 ,藍色 ,美麗 ,世界文化遺產 ,海岸 ,世界文化遺產 ,晴天",,4,日本、〒424-0901 静岡県静岡市清水区三保
154,東北,福島,第一只見川橋梁,第一只見川橋梁,37.4846391,139.6712167,"Landscape ,Japan ,Nature ,Blue sky ,Sightseeing resort ,Tourism ,Natural landscape ,Autumn ,Green ,Summer ,Noted place ,Autumn leaves ,Plant ,Travel ,Tourist attractions ,Early summer ,Tourist attractions ,November ,Winter ,May ,Fresh green ,Superb view ,Landscape ,Sunny ,Tohoku ,Green ,June ,Trip ,Vehicle ,Snowscape","風景 ,日本 ,自然 ,藍藍的天空 ,觀光地 ,觀光 ,自然風景 ,秋天 ,綠色 ,夏 ,名所 ,紅葉 ,植物 ,旅行 ,觀光名所 ,初夏 ,11月 ,旅遊景點 ,冬 ,5月 ,鮮綠 ,絶景 ,景色 ,陽光明媚 ,東北 ,綠色 ,6月 ,旅 ,遊樂設施 ,紅葉",,4.8,日本、〒969-7402 福島県大沼郡三島町
155,北海道,道東,霧多布岬,霧多布岬,43.0765207,145.1711517,"Landscape ,Japan ,Nature ,Blue sky ,Sunny ,Sightseeing resort ,Tourism ,Summer ,Noted place ,Cloud ,Travel ,Tourist attractions ,Sea ,Tourist attractions ,Daytime ,Superb view ,Hokkaido ,October ,Landscape ,Sunny ,August ,Blue ,Morning ,Trip ,Coast ,Fine weather ,Fresh ,Horizon ,Blue ,Sun","風景 ,日本 ,自然 ,藍藍的天空 ,晴天 ,觀光地 ,觀光 ,夏 ,名所 ,雲 ,旅行 ,觀光名所 ,海 ,中午 ,旅遊景點 ,絶景 ,北海道 ,10月 ,景色 ,陽光明媚 ,藍色 ,8月 ,早上 ,海岸 ,旅 ,晴天 ,清爽 ,水平線 ,太陽 ,藍色",,4.5,日本、〒088-1522 北海道厚岸郡浜中町湯沸33番地
159,北海道,道南,駒岳大沼,北海道駒ヶ岳,42.063333,140.677222,"Landscape ,Nature ,Blue sky ,Sunny ,Sightseeing resort ,Tree ,Tourism ,Natural landscape ,Autumn ,Mountain ,Noted place ,Autumn leaves ,Plant ,Early summer ,Winter ,Water surface ,Superb view ,Hokkaido ,Sunny ,Snow ,June ,July ,Beautiful ,Lake ,Water ,Vehicle ,Fine weather ,Leaf ,Kanto ,Snow coverage","風景 ,自然 ,藍藍的天空 ,晴天 ,觀光地 ,木頭 ,觀光 ,自然風景 ,秋天 ,山 ,名所 ,紅葉 ,植物 ,初夏 ,冬 ,水面 ,絶景 ,北海道 ,陽光明媚 ,雪 ,6月 ,7月 ,美麗 ,湖 ,水 ,遊樂設施 ,晴天 ,關東 ,葉 ,積雪",,4.4,日本、〒049-2301 北海道茅部郡森町尾白内町 北海道駒ヶ岳
160,北海道,道東,屈斜路湖,屈斜路湖,43.603842,144.3254063,"Landscape ,Japan ,Nature ,Blue sky ,Sunny ,Sightseeing resort ,Tree ,Tourism ,Natural landscape ,Autumn ,Noted place ,Autumn leaves ,Cloud ,Plant ,Travel ,Tourist attractions ,Tourist attractions ,Winter ,Water surface ,Superb view ,Hokkaido ,Landscape ,Snow ,Green ,Blue ,July ,Morning ,Lake ,Trip ,Asia","風景 ,日本 ,自然 ,藍藍的天空 ,晴天 ,觀光地 ,木頭 ,觀光 ,自然風景 ,秋天 ,名所 ,紅葉 ,雲 ,植物 ,旅行 ,觀光名所 ,旅遊景點 ,冬 ,水面 ,絶景 ,北海道 ,景色 ,雪 ,藍色 ,綠色 ,7月 ,早上 ,湖 ,旅 ,9月",,4.4,日本、北海道川上郡弟子屈町 屈斜路湖
164,東北,宮城,御釜,蔵王山 御釜（五色沼）,38.1365097,140.4494818,"Landscape ,Japan ,Nature ,Blue sky ,Sunny ,Sightseeing resort ,Tourism ,Autumn ,Spring ,Green ,Mountain ,Summer ,Noted place ,Cloud ,Plant ,Travel ,Tourist attractions ,Tourist attractions ,Water surface ,May ,Superb view ,October ,Landscape ,Sunny ,Snow ,Tohoku ,Green ,August ,Blue ,Beautiful","風景 ,日本 ,自然 ,藍藍的天空 ,晴天 ,觀光地 ,觀光 ,秋天 ,春天 ,綠色 ,山 ,夏 ,名所 ,雲 ,植物 ,旅行 ,觀光名所 ,旅遊景點 ,水面 ,5月 ,絶景 ,10月 ,景色 ,陽光明媚 ,雪 ,東北 ,藍色 ,綠色 ,8月 ,美麗",,4.4,日本、〒989-0916 宮城県刈田郡蔵王町遠刈田温泉倉石岳国有林内
165,四國,愛媛,來島海峽大橋,来島海峡大橋,34.120979,132.9993437,"Landscape ,Japan ,Nature ,Blue sky ,Sunny ,Sightseeing resort ,Tourism ,Cloud ,Travel ,Sea ,November ,Superb view ,Night view ,October ,Landscape ,Bridge ,June ,August ,Red ,Road ,Evening ,Island ,Chugoku Region ,Sunset ,Shikoku ,Blue ,Sun ,View ,View ,Sunset","風景 ,日本 ,自然 ,藍藍的天空 ,晴天 ,觀光地 ,觀光 ,雲 ,旅行 ,海 ,11月 ,絶景 ,夜景 ,10月 ,景色 ,橋 ,6月 ,8月 ,紅色 ,道路 ,傍晚 ,島 ,中國地區 ,日落 ,四國 ,太陽 ,藍色 ,展望 ,眺望 ,日落",,4.4,日本、愛媛県今治市
166,四國,愛媛,田丸橋,田丸橋,33.584054,132.6424335,"Landscape ,Japan ,Nature ,Sunny ,Sightseeing resort ,Tourism ,Spring ,Green ,Summer ,Noted place ,Tourist attractions ,April ,Tourist attractions ,Daytime ,River ,Bridge ,August ,Light ,March ,River ,Countryside ,Shikoku ,Taste ,Mid summer ,Rape blossoms ,Roof ,Wooden construction ,Agriculture ,Ehime Prefecture ,Village-vicinity mountain","風景 ,日本 ,自然 ,晴天 ,觀光地 ,觀光 ,春天 ,綠色 ,夏 ,名所 ,觀光名所 ,4月 ,中午 ,旅遊景點 ,河 ,橋 ,8月 ,光 ,3月 ,田舎 ,河川 ,四國 ,風情 ,油菜花 ,盛夏 ,屋頂 ,木制 ,農業 ,愛媛縣 ,里山",,4,日本、〒791-3342 愛媛県喜多郡内子町河内２２０１
167,中國,岡山,後樂園,岡山後楽園,34.6673339,133.93617,"Landscape ,Japan ,Nature ,Blue sky ,Sunny ,Sightseeing resort ,Tree ,Tourism ,Building ,Autumn ,Green ,Noted place ,Autumn leaves ,Cloud ,Plant ,Travel ,Tourist attractions ,Tourist attractions ,November ,Daytime ,Water surface ,Fresh green ,Landscape ,Park ,Green ,July ,Red ,Yellow ,History ,Trip","風景 ,日本 ,自然 ,藍藍的天空 ,晴天 ,觀光地 ,木頭 ,觀光 ,建設 ,秋天 ,綠色 ,名所 ,紅葉 ,雲 ,植物 ,旅行 ,觀光名所 ,11月 ,中午 ,旅遊景點 ,水面 ,鮮綠 ,景色 ,公園 ,綠色 ,7月 ,紅色 ,黃色 ,歷史 ,旅",,4.3,日本、〒703-8257 岡山県岡山市北区後楽園１−５
171,沖繩,沖繩,平久保崎,平久保崎灯台,24.6102576,124.3160524,"Landscape ,Japan ,Nature ,Blue sky ,Sunny ,Sightseeing resort ,Tourism ,Green ,Summer ,Noted place ,Cloud ,Travel ,Tourist attractions ,April ,Sea ,Tourist attractions ,May ,Superb view ,Landscape ,Sunny ,Green ,August ,Blue ,July ,Beautiful ,Trip ,Coast ,Scenic spot ,Horizon ,Blue","風景 ,日本 ,自然 ,藍藍的天空 ,晴天 ,觀光地 ,觀光 ,綠色 ,夏 ,名所 ,雲 ,旅行 ,觀光名所 ,4月 ,海 ,旅遊景點 ,5月 ,絶景 ,景色 ,陽光明媚 ,藍色 ,綠色 ,7月 ,8月 ,美麗 ,海岸 ,旅 ,風景名勝區 ,水平線 ,藍色",,4.5,日本、〒907-0331 沖縄県石垣市平久保２３４−５０
172,沖繩,沖繩,殘波岬燈台,残波岬灯台,26.4410614,127.7137785,"Landscape ,Japan ,Nature ,Blue sky ,Sunny ,Sightseeing resort ,Tourism ,Building ,Summer ,Noted place ,Cloud ,Travel ,Sea ,Daytime ,Water surface ,Park ,August ,Blue ,July ,Beautiful ,Coast ,September ,Scenic spot ,Fresh ,Horizon ,Beautiful ,Boat ,Sunset ,Sea level ,Okinawa Prefecture","風景 ,日本 ,自然 ,藍藍的天空 ,晴天 ,觀光地 ,觀光 ,建設 ,夏 ,名所 ,雲 ,旅行 ,海 ,中午 ,水面 ,公園 ,藍色 ,7月 ,8月 ,美麗 ,海岸 ,9月 ,風景名勝區 ,清爽 ,水平線 ,漂亮 ,船 ,日落 ,海面 ,沖繩縣",,4.2,日本、〒904-0328 沖縄県中頭郡読谷村宇座
173,東北,岩手,淨土之濱,浄土ヶ浜,39.6523962,141.978652,"Landscape ,Nature ,Blue sky ,Sunny ,Sightseeing resort ,Tourism ,Autumn ,Spring ,Sea ,May ,Superb view ,Sunny ,Tohoku ,Blue ,Trip ,Coast ,Scenic spot ,Horizon ,Blue ,Landscape ,Sea level ,Iwate Prefecture ,Tohoku Region ,Pacific ,Rias coast ,Rikuchu Coast ,Sanriku Coast ,Miyakojima city ,Jodogahama Beach","風景 ,自然 ,藍藍的天空 ,晴天 ,觀光地 ,觀光 ,秋天 ,春天 ,海 ,5月 ,絶景 ,陽光明媚 ,東北 ,藍色 ,海岸 ,旅 ,風景名勝區 ,水平線 ,景觀 ,藍色 ,海面 ,岩手縣 ,東北地方 ,太平洋 ,溺灣 ,陸中海岸 ,三陸海岸 ,宮古市 ,淨土濱",,4.3,日本、〒027-0001 岩手県宮古市日立浜町３２
174,四國,高知,高知城,高知城,33.5607005,133.5315202,"Landscape ,Japan ,Blue sky ,Sunny ,Sightseeing resort ,Tourism ,Building ,Spring ,Noted place ,Travel ,Tourist attractions ,April ,Tourist attractions ,Buildings ,Cherry ,In full bloom ,Sunny ,History ,Trip ,Historic site ,Garden ,December ,Castle ,January ,Japanese-style ,Cherry blossom ,Shikoku ,Tradition ,Prunus yedoensis ,Stone wall","風景 ,日本 ,藍藍的天空 ,晴天 ,觀光地 ,觀光 ,建設 ,春天 ,名所 ,旅行 ,觀光名所 ,4月 ,旅遊景點 ,建築物 ,櫻花 ,盛開 ,陽光明媚 ,歷史 ,旅 ,歷史遺址 ,花園 ,12月 ,城 ,1 月 ,日本風格 ,櫻花 ,四國 ,傳統 ,石垣 ,染井吉野櫻",,4.2,日本、〒780-0850 高知県高知市丸ノ内１丁目２−１
178,東北,山形,立石寺,宝珠山 立石寺,38.3131193,140.4346099,"Landscape ,Japan ,Nature ,Blue sky ,Sightseeing resort ,Tourism ,Building ,Green ,Summer ,Noted place ,Cloud ,Travel ,Early summer ,Winter ,Snow ,Tohoku ,June ,Temple ,Historic site ,Snowscape ,White ,January ,Japanese-style ,Blue ,Temples and shrines ,Temples and shrines ,Tohoku Region ,Viewing platform ,Yamagata Prefecture ,Winter landscape","風景 ,日本 ,自然 ,藍藍的天空 ,觀光地 ,觀光 ,建設 ,綠色 ,夏 ,名所 ,雲 ,旅行 ,初夏 ,冬 ,雪 ,東北 ,6月 ,寺 ,歷史遺址 ,雪景 ,白色 ,1 月 ,日本風格 ,藍色 ,寺院 ,寺廟和神社 ,東北地方 ,展望台 ,山形縣 ,冬景色",,4.4,日本、〒999-3301 山形県山形市山寺４４５６−１
182,中國,山口,秋芳洞,秋芳洞,34.2281085,131.3035357,"Landscape ,Nature ,Sightseeing resort ,Tourism ,Noted place ,Travel ,Tourist attractions ,Tourist attractions ,Bridge ,June ,July ,Rock ,December ,Chugoku Region ,Rock surface ,Natural monument ,Yamaguchi Prefecture ,Yamaguchi ,Cave ,Rocky mountain ,Limestone cave ,Stalactite ,Limestone ,Mine-shi ,Akiyoshidai ,Special natural monument ,Akiyoshido Cave ,Underground","風景 ,自然 ,觀光地 ,觀光 ,名所 ,旅行 ,觀光名所 ,旅遊景點 ,橋 ,6月 ,7月 ,岩石 ,12月 ,中國地區 ,岩肌 ,自然紀念物 ,山口縣 ,山口 ,洞穴 ,岩山 ,鐘乳洞 ,鐘乳石 ,石灰岩 ,美稱市 ,秋吉台 ,特別天然記念物 ,秋芳洞 ,地下",,4.3,日本、〒754-0511 山口県美祢市秋芳町秋吉秋吉台
183,中國,山口,青海島,海上アルプス,34.4289566,131.2221666,"Landscape ,Japan ,Nature ,Blue sky ,Sunny ,Sightseeing resort ,Tourism ,Noted place ,Cloud ,Tourist attractions ,April ,Sea ,Tourist attractions ,Landscape ,July ,Rock ,Coast ,September ,Harmony ,Scenic spot ,Island ,Chugoku Region ,Blue ,Landscape ,Scenic spot ,Wave ,Japan Sea ,Natural monument ,Strangely shaped rock ,Sandy beach","風景 ,日本 ,自然 ,藍藍的天空 ,晴天 ,觀光地 ,觀光 ,名所 ,雲 ,觀光名所 ,4月 ,海 ,旅遊景點 ,景色 ,7月 ,岩石 ,海岸 ,9月 ,和 ,風景名勝區 ,島 ,中國地區 ,景觀 ,藍色 ,名勝 ,波 ,日本海 ,自然紀念物 ,砂濱 ,奇岩",,4.1,日本、〒759-4106 山口県長門市仙崎大日比
184,中部,山梨,昇仙峽,御岳昇仙峡,35.7452739,138.5673611,"Landscape ,Japan ,Nature ,Blue sky ,Sunny ,Sightseeing resort ,Tourism ,Autumn ,Spring ,Green ,Mountain ,Summer ,Noted place ,Autumn leaves ,Plant ,Travel ,Tourist attractions ,Early summer ,Tourist attractions ,November ,Daytime ,Winter ,Water surface ,Fresh green ,Superb view ,River ,Landscape ,Sunny ,Bridge ,Green","風景 ,日本 ,自然 ,藍藍的天空 ,晴天 ,觀光地 ,觀光 ,秋天 ,春天 ,綠色 ,山 ,夏 ,名所 ,紅葉 ,植物 ,旅行 ,觀光名所 ,初夏 ,11月 ,中午 ,旅遊景點 ,冬 ,水面 ,鮮綠 ,絶景 ,河 ,景色 ,陽光明媚 ,橋 ,綠色",,4.3,日本、〒400-1214 山梨県甲府市高成町
185,中部,山梨,武田神社,武田神社,35.6869295,138.5766385,"Landscape ,Japan ,Nature ,Blue sky ,Sunny ,Sightseeing resort ,Tree ,Tourism ,Building ,Autumn ,Spring ,Flower ,Autumn leaves ,Plant ,April ,November ,Cherry ,Winter ,May ,Fresh green ,Red ,Yellow ,Shrine ,Fine weather ,Leaf ,Harmony ,Japanese maple ,Japanese maple ,Buddhist temples and Shinto shrines ,Yamanashi Prefecture","風景 ,日本 ,自然 ,藍藍的天空 ,晴天 ,觀光地 ,木頭 ,觀光 ,建設 ,秋天 ,春天 ,花 ,紅葉 ,植物 ,4月 ,11月 ,櫻花 ,冬 ,5月 ,鮮綠 ,紅色 ,黃色 ,神社 ,晴天 ,葉 ,和 ,紅葉 ,紅葉 ,寺社佛閣 ,山梨縣",,4.2,日本、〒400-0014 山梨県甲府市古府中町２６１１
186,中部,山梨,尾白川溪谷,大代川,34.860203,138.0829304,"Landscape ,Japan ,Nature ,Sightseeing resort ,Tree ,Tourism ,Autumn ,Green ,Mountain ,Noted place ,Autumn leaves ,Tourist attractions ,Tourist attractions ,November ,River ,October ,Landscape ,Bridge ,Green ,June ,Beautiful ,Rock ,Forest ,Water ,Valley, Canyon, Gorge ,Yellow leaf ,Leaf ,Waterfall ,Forest ,White","風景 ,日本 ,自然 ,觀光地 ,木頭 ,觀光 ,秋天 ,綠色 ,山 ,名所 ,紅葉 ,觀光名所 ,11月 ,旅遊景點 ,河 ,10月 ,景色 ,橋 ,綠色 ,6月 ,美麗 ,岩石 ,森 ,水 ,黄葉 ,溪谷 ,葉 ,瀑布 ,森林 ,白色",,0,日本、〒428-0009 静岡県島田市大代 大代川
187,中部,富士山,本栖湖,本栖湖,35.4631866,138.5837799,"Landscape ,Japan ,Nature ,Blue sky ,Sunny ,Sightseeing resort ,Tourism ,Natural landscape ,Autumn ,Mountain ,Noted place ,Autumn leaves ,Travel ,Tourist attractions ,November ,Winter ,Water surface ,Superb view ,Night view ,Landscape ,Sunny ,Beautiful ,World heritage site ,Morning ,Lake ,Trip ,Evening ,Asia ,Water ,Yellow leaf","風景 ,日本 ,自然 ,藍藍的天空 ,晴天 ,觀光地 ,觀光 ,自然風景 ,秋天 ,山 ,名所 ,紅葉 ,旅行 ,11月 ,旅遊景點 ,冬 ,水面 ,絶景 ,夜景 ,景色 ,陽光明媚 ,美麗 ,世界文化遺產 ,早上 ,湖 ,旅 ,傍晚 ,亞洲 ,水 ,黄葉",,4.4,日本、山梨県 本栖湖
191,中部,山梨,西澤溪谷,西沢渓谷,35.8694472,138.7401336,"Landscape ,Japan ,Nature ,Blue sky ,Sunny ,Sightseeing resort ,Tree ,Tourism ,Natural landscape ,Autumn ,Green ,Mountain ,Summer ,Noted place ,Autumn leaves ,Plant ,Tourist attractions ,Early summer ,Tourist attractions ,November ,Daytime ,Winter ,Water surface ,May ,Fresh green ,Superb view ,River ,Landscape ,Sunny ,Snow","風景 ,日本 ,自然 ,藍藍的天空 ,晴天 ,觀光地 ,木頭 ,觀光 ,自然風景 ,秋天 ,綠色 ,山 ,夏 ,名所 ,紅葉 ,植物 ,觀光名所 ,初夏 ,11月 ,中午 ,旅遊景點 ,冬 ,水面 ,5月 ,鮮綠 ,絶景 ,河 ,景色 ,陽光明媚 ,雪",,4.5,日本、〒404-0206 山梨県山梨市三富上釜口
192,關西,滋賀,彥根城,彦根城,35.276452,136.251846,"Landscape ,Japan ,Nature ,Blue sky ,Sunny ,Sightseeing resort ,Tree ,Tourism ,Building ,Autumn ,Spring ,Summer ,Noted place ,Autumn leaves ,Cloud ,Travel ,Tourist attractions ,April ,Tourist attractions ,November ,Daytime ,Cherry ,Winter ,Water surface ,In full bloom ,Sunny ,Snow ,Green ,Blue ,History",,,4.2,日本、〒522-0061 滋賀県彦根市金亀町１−１
196,關西,滋賀,八幡堀,八幡堀,35.1397044,136.0899624,"Landscape ,Japan ,Nature ,Blue sky ,Sunny ,Sightseeing resort ,Tourism ,Spring ,Green ,Flower ,Noted place ,Plant ,Travel ,April ,Early summer ,Cherry ,Winter ,Pink ,In full bloom ,River ,October ,Landscape ,Sunny ,Snow ,June ,Yellow ,Lake ,History ,Trip ,Water","風景 ,日本 ,自然 ,藍藍的天空 ,晴天 ,觀光地 ,觀光 ,春天 ,綠色 ,花 ,名所 ,植物 ,旅行 ,4月 ,初夏 ,櫻花 ,冬 ,粉色 ,盛開 ,河 ,10月 ,景色 ,陽光明媚 ,雪 ,6月 ,黃色 ,歷史 ,湖 ,旅 ,水",,4.2,日本、〒523-0837 滋賀県近江八幡市大杉町
197,關西,滋賀,三井寺,園城寺（三井寺）,35.0133605,135.8528573,"Landscape ,Japan ,Nature ,Blue sky ,Sunny ,Sightseeing resort ,Tree ,Tourism ,Autumn ,Spring ,Green ,Summer ,Noted place ,Autumn leaves ,Cloud ,Plant ,Tourist attractions ,Early summer ,Tourist attractions ,November ,Cherry ,May ,Fresh green ,In full bloom ,Green ,Temple ,Yellow ,Lake ,Fine weather ,Leaf","風景 ,日本 ,自然 ,藍藍的天空 ,晴天 ,觀光地 ,木頭 ,觀光 ,秋天 ,春天 ,綠色 ,夏 ,名所 ,紅葉 ,雲 ,植物 ,觀光名所 ,初夏 ,11月 ,旅遊景點 ,櫻花 ,5月 ,鮮綠 ,盛開 ,綠色 ,寺 ,黃色 ,湖 ,晴天 ,花園",,4.3,日本、〒520-0036 滋賀県大津市園城寺町２４６
198,九州,鹿兒島,櫻島,桜島,31.583333,130.65,"Landscape ,Japan ,Nature ,Blue sky ,Sunny ,Sightseeing resort ,Tourism ,Mountain ,Cloud ,Plant ,Travel ,Sea ,November ,May ,Fresh green ,Superb view ,City ,Sunny ,Park ,Cityscape ,Green ,June ,Blue ,History ,Trip ,Asia ,September ,Kyushu ,Fine weather ,Townscape","風景 ,日本 ,自然 ,藍藍的天空 ,晴天 ,觀光地 ,觀光 ,山 ,雲 ,植物 ,旅行 ,海 ,11月 ,5月 ,鮮綠 ,絶景 ,街 ,陽光明媚 ,公園 ,街燈 ,藍色 ,綠色 ,6月 ,歷史 ,旅 ,9月 ,亞洲 ,九州 ,晴天 ,市區街道",,4.4,日本、〒891-1420 鹿児島県鹿児島市桜島赤水町 桜島
199,九州,宮崎,日南海岸,日南海岸 南郷プリンスホテル,31.52501,131.381278,"Landscape ,Japan ,Blue sky ,Tree ,Tourism ,Travel ,Sea ,May ,October ,Landscape ,Bridge ,July ,Road ,Trip ,Coast ,Kyushu ,Scenic spot ,January ,Horizon ,Wave ,Viewing platform ,Tropical ,Miyazaki Prefecture ,Sandy beach ,Pacific ,Drive ,Car ,Nichinan Beach ,Miyazaki-shi","風景 ,日本 ,藍藍的天空 ,木頭 ,觀光 ,旅行 ,海 ,5月 ,10月 ,景色 ,橋 ,7月 ,道路 ,海岸 ,旅 ,九州 ,風景名勝區 ,1 月 ,水平線 ,波 ,展望台 ,南國 ,宮崎縣 ,砂濱 ,太平洋 ,磁碟機 ,汽車 ,日南海岸 ,宮崎市",,4,日本、〒889-3204 宮崎県日南市 南郷町城浦
200,關西,和歌山,橋杭岩,橋杭岩,33.4880617,135.7957474,"Landscape ,Japan ,Nature ,Blue sky ,Sunny ,Sightseeing resort ,Tourism ,Autumn ,Summer ,Noted place ,Cloud ,Travel ,Tourist attractions ,Early summer ,Sea ,Tourist attractions ,November ,Water surface ,May ,Superb view ,Landscape ,Blue ,Morning ,Rock ,Trip ,Coast ,Asia ,Water ,Light ,Kinki","風景 ,日本 ,自然 ,藍藍的天空 ,晴天 ,觀光地 ,觀光 ,秋天 ,夏 ,名所 ,雲 ,旅行 ,觀光名所 ,海 ,初夏 ,11月 ,旅遊景點 ,水面 ,5月 ,絶景 ,景色 ,藍色 ,早上 ,岩石 ,海岸 ,旅 ,亞洲 ,水 ,光 ,近畿",,4.2,日本、〒649-3500 和歌山県東牟婁郡串本町 くじの川
201,關西,和歌山,那智之瀧,那智の滝,33.675381,135.8875025,"Landscape ,Japan ,Nature ,Sunny ,Sightseeing resort ,Tourism ,Green ,Mountain ,Noted place ,Plant ,Travel ,Tourist attractions ,Early summer ,May ,Fresh green ,Superb view ,June ,Temple ,World heritage site ,History ,Shrine ,Asia ,Water ,September ,World cultural heritage ,Historic site ,Historic building ,Kinki ,December ,Cultural heritage","風景 ,日本 ,自然 ,晴天 ,觀光地 ,觀光 ,綠色 ,山 ,名所 ,植物 ,旅行 ,觀光名所 ,初夏 ,5月 ,鮮綠 ,絶景 ,6月 ,寺 ,世界文化遺產 ,歷史 ,神社 ,9月 ,亞洲 ,水 ,世界文化遺產 ,歷史遺址 ,歷史建築 ,文化遺產 ,12月 ,近畿",,4.4,日本、〒649-5301 和歌山県東牟婁郡那智勝浦町那智山
202,四國,愛媛,松山城,松山城,33.8455768,132.7655346,"Landscape ,Japan ,Blue sky ,Sunny ,Sightseeing resort ,Tourism ,Building ,Spring ,Noted place ,Autumn leaves ,Travel ,Tourist attractions ,Tourist attractions ,Buildings ,Winter ,In full bloom ,Landscape ,Park ,History ,Trip ,September ,February ,Historic site ,Fine weather ,Historic building ,December ,Japanese maple ,Townscape ,Castle ,Shikoku","風景 ,日本 ,藍藍的天空 ,晴天 ,觀光地 ,觀光 ,建設 ,春天 ,名所 ,紅葉 ,旅行 ,觀光名所 ,旅遊景點 ,建築物 ,冬 ,盛開 ,景色 ,公園 ,歷史 ,旅 ,9月 ,2月 ,歷史遺址 ,晴天 ,歷史建築 ,12月 ,紅葉 ,市區街道 ,城 ,四國",,4.3,日本、〒790-0008 愛媛県松山市丸之内１
206,東北,岩手,龍泉洞,龍泉洞,39.8604762,141.7970026,"Landscape ,Nature ,Blue sky ,Sightseeing resort ,Tourism ,Autumn ,Green ,Noted place ,Autumn leaves ,Plant ,Tourist attractions ,River ,October ,Tohoku ,Light up ,Bridge ,Yellow ,Water ,Light ,February ,Torrent ,Clear stream ,Countryside ,Tree ,Iwate Prefecture ,Tohoku Region ,Natural monument ,Cave ,Limestone cave","風景 ,自然 ,藍藍的天空 ,觀光地 ,觀光 ,秋天 ,綠色 ,名所 ,紅葉 ,植物 ,觀光名所 ,河 ,10月 ,東北 ,亮燈 ,橋 ,黃色 ,水 ,光 ,2月 ,溪流 ,清流 ,田舎 ,樹木 ,岩手縣 ,東北地方 ,自然紀念物 ,洞穴 ,鐘乳洞",,4.3,日本、〒027-0501 岩手県下閉伊郡岩泉町岩泉神成１番地１
210,四國,香川,栗林公園,栗林公園,34.3293842,134.0445346,"Landscape ,Japan ,Nature ,Blue sky ,Sunny ,Sightseeing resort ,Tree ,Autumn ,Green ,Mountain ,Summer ,Autumn leaves ,Cloud ,Plant ,Travel ,November ,Water surface ,Fresh green ,Night ,Landscape ,Park ,Light up ,Bridge ,Green ,August ,Blue ,Pond ,Historic site ,Garden ,Harmony","風景 ,日本 ,自然 ,藍藍的天空 ,晴天 ,觀光地 ,木頭 ,秋天 ,綠色 ,山 ,夏 ,紅葉 ,雲 ,植物 ,旅行 ,11月 ,水面 ,鮮綠 ,晚上 ,景色 ,公園 ,亮燈 ,橋 ,藍色 ,綠色 ,8月 ,池 ,歷史遺址 ,花園 ,和",,4.4,日本、〒760-0073 香川県高松市栗林町１丁目２０−１６
211,四國,香川,寒霞溪,寒霞渓 ロープウェイ,34.5156402,134.3006589,"Landscape ,Japan ,Nature ,Blue sky ,Sunny ,Sightseeing resort ,Tourism ,Autumn ,Green ,Mountain ,Noted place ,Autumn leaves ,Cloud ,Plant ,Travel ,Early summer ,Sea ,November ,Water surface ,May ,Night view ,Landscape ,Sunny ,Blue ,Morning ,Pond ,September ,Valley, Canyon, Gorge ,Splendid ,Japanese maple","風景 ,日本 ,自然 ,藍藍的天空 ,晴天 ,觀光地 ,觀光 ,秋天 ,綠色 ,山 ,名所 ,紅葉 ,雲 ,植物 ,旅行 ,海 ,初夏 ,11月 ,水面 ,5月 ,夜景 ,景色 ,陽光明媚 ,藍色 ,早上 ,池 ,9月 ,溪谷 ,鮮明 ,紅葉",,4,日本、〒761-4433 香川県小豆郡小豆島町神懸通乙１６８
212,東北,秋田,田澤湖,田沢湖,39.7168527,140.6544861,"Landscape ,Japan ,Nature ,Blue sky ,Sunny ,Sightseeing resort ,Tourism ,Building ,Mountain ,Summer ,Noted place ,Cloud ,Plant ,Travel ,Tourist attractions ,Tourist attractions ,Winter ,Water surface ,October ,Landscape ,Sunny ,Tohoku ,August ,Blue ,Beautiful ,Lake ,Shrine ,Trip ,Asia ,Water","風景 ,日本 ,自然 ,藍藍的天空 ,晴天 ,觀光地 ,觀光 ,建設 ,山 ,夏 ,名所 ,雲 ,植物 ,旅行 ,觀光名所 ,旅遊景點 ,冬 ,水面 ,10月 ,景色 ,陽光明媚 ,東北 ,藍色 ,8月 ,美麗 ,湖 ,神社 ,旅 ,9月 ,亞洲",,4.3,日本、秋田県仙北市 田沢湖
213,東北,青森,白神山地,白神山地,40.4568626,140.1645095,"Landscape ,Japan ,Nature ,Blue sky ,Sightseeing resort ,Tree ,Tourism ,Autumn ,Spring ,Green ,Mountain ,Summer ,Noted place ,Plant ,Travel ,April ,Sea ,Fresh green ,Superb view ,October ,Landscape ,Sunny ,Tohoku ,Green ,June ,August ,July ,Beautiful ,World heritage site ,Rock","風景 ,日本 ,自然 ,藍藍的天空 ,觀光地 ,木頭 ,觀光 ,秋天 ,春天 ,綠色 ,山 ,夏 ,名所 ,植物 ,旅行 ,4月 ,海 ,鮮綠 ,絶景 ,10月 ,景色 ,陽光明媚 ,東北 ,綠色 ,6月 ,7月 ,8月 ,美麗 ,世界文化遺產 ,岩石",,4,日本、〒036-1424 青森県中津軽郡西目屋村川原平 白神山地
214,中部,新潟,佐渡金山,佐渡金山跡,38.0416936,138.2560014,"Landscape ,Japan ,Nature ,Sunny ,Sightseeing resort ,Tree ,Tourism ,Building ,Spring ,Green ,Noted place ,Travel ,Tourist attractions ,Early summer ,Tourist attractions ,Daytime ,Buildings ,May ,Fresh green ,Landscape ,June ,August ,History ,Trip ,Historic site ,Leaf ,Historic building ,Hokuriku ,Scenic spot ,White","風景 ,日本 ,自然 ,晴天 ,觀光地 ,木頭 ,觀光 ,建設 ,春天 ,綠色 ,名所 ,旅行 ,觀光名所 ,初夏 ,中午 ,旅遊景點 ,建築物 ,5月 ,鮮綠 ,景色 ,6月 ,8月 ,歷史 ,旅 ,歷史遺址 ,歷史建築 ,葉 ,北陸 ,白色 ,風景名勝區",,4.1,日本、〒952-1501 新潟県佐渡市下相川１３０５
215,中部,新潟,清津峽,清津峡,36.9604262,138.7572421,"Landscape ,Japan ,Nature ,Blue sky ,Sunny ,Sightseeing resort ,Tree ,Tourism ,Natural landscape ,Autumn ,Spring ,Mountain ,Autumn leaves ,Plant ,Travel ,Tourist attractions ,Tourist attractions ,November ,Water surface ,May ,Fresh green ,Superb view ,River ,Landscape ,Sunny ,Red ,Yellow ,Rock ,Trip ,Water","風景 ,自然 ,秋天 ,紅葉 ,11月 ,黃色 ,岩石 ,溪谷 ,河川 ,新潟 ,甲信越 ,十日町市 ,清津峽 ,清津川",,4,日本、〒949-8433 新潟県十日町市小出
216,關東,東京,白山神社,白山神社,35.7219976,139.7506422,"Landscape ,Japan ,Nature ,Sunny ,Sightseeing resort ,Tourism ,Spring ,Green ,Flower ,Noted place ,Plant ,Tourist attractions ,Early summer ,Tourist attractions ,Pink ,In full bloom ,June ,Blue ,Red ,Shrine ,Asia ,Tokyo Metropolitan Area ,Fine weather ,Kanto ,Leaf ,Buddhist temples and Shinto shrines ,Grounds of a shrine ,Festival ,Approach ,Blue","風景 ,日本 ,自然 ,晴天 ,觀光地 ,觀光 ,綠色 ,花 ,名所 ,植物 ,觀光名所 ,初夏 ,粉色 ,盛開 ,藍色 ,6月 ,紅色 ,神社 ,亞洲 ,東京都 ,晴天 ,關東 ,葉 ,藍色 ,紅 ,花瓣 ,漂亮 ,向上 ,紫色 ,繡球花",,3.9,日本、〒112-0001 東京都文京区白山５丁目３１−２６
220,中部,新潟,瓢湖,瓢湖,37.8383791,139.2374523,"Landscape ,Nature ,Blue sky ,Sightseeing resort ,Tree ,Tourism ,Spring ,Green ,Mountain ,Flower ,Summer ,Plant ,April ,Cherry ,Water surface ,In full bloom ,Landscape ,Green ,August ,Morning ,Lake ,Pond ,February ,Cherry blossom ,Water's edge ,Cherry blossom ,Tree ,Surface of a lake ,Flower petal ,Roadside cherry trees","風景 ,自然 ,藍藍的天空 ,觀光地 ,木頭 ,觀光 ,春天 ,綠色 ,山 ,花 ,夏 ,植物 ,4月 ,櫻花 ,水面 ,盛開 ,景色 ,綠色 ,8月 ,早上 ,湖 ,池 ,2月 ,櫻花 ,水邊 ,櫻花 ,樹木 ,湖面 ,花瓣 ,櫻花行道樹",,3.8,日本、新潟県阿賀野市 瓢湖
221,東北,青森,十和田湖,十和田湖,40.464869,140.8772428,"Landscape ,Japan ,Nature ,Blue sky ,Sunny ,Sightseeing resort ,Tree ,Tourism ,Autumn ,Spring ,Green ,Mountain ,Summer ,Autumn leaves ,Plant ,Tourist attractions ,Winter ,Water surface ,May ,Fresh green ,October ,Sunny ,Snow ,Tohoku ,Green ,Blue ,Lake ,Water ,September ,February","風景 ,日本 ,自然 ,藍藍的天空 ,晴天 ,觀光地 ,木頭 ,觀光 ,秋天 ,春天 ,綠色 ,山 ,夏 ,紅葉 ,植物 ,觀光名所 ,冬 ,水面 ,5月 ,鮮綠 ,10月 ,陽光明媚 ,雪 ,東北 ,藍色 ,綠色 ,湖 ,9月 ,水 ,2月",,4.3,日本、十和田湖
222,東北,青森,八甲田山,八甲田山,40.6647741,140.912122,"Landscape ,Japan ,Nature ,Blue sky ,Sunny ,Sightseeing resort ,Tree ,Tourism ,Autumn ,Spring ,Mountain ,Flower ,Summer ,Noted place ,Autumn leaves ,Cloud ,Plant ,Travel ,Tourist attractions ,Early summer ,Tourist attractions ,Daytime ,Winter ,Water surface ,Fresh green ,Superb view ,In full bloom ,October ,Landscape ,Sunny","風景 ,日本 ,自然 ,藍藍的天空 ,晴天 ,觀光地 ,木頭 ,觀光 ,秋天 ,春天 ,山 ,花 ,夏 ,名所 ,紅葉 ,雲 ,植物 ,旅行 ,觀光名所 ,初夏 ,中午 ,旅遊景點 ,冬 ,水面 ,鮮綠 ,絶景 ,盛開 ,10月 ,景色 ,陽光明媚",,4.4,日本、〒030-0955 青森県青森市駒込深沢 八甲田山
223,東北,青森,恐山 宇曾利湖,恐山,41.308333,141.088056,"Landscape ,Nature ,Blue sky ,Sunny ,Sightseeing resort ,Tourism ,Autumn ,Green ,Mountain ,Noted place ,Autumn leaves ,Tourist attractions ,Water surface ,Superb view ,Landscape ,Sunny ,Tohoku ,Bridge ,August ,Temple ,Lake ,February ,Forest ,Fresh ,Aomori Prefecture ,Blue ,Landscape ,Surface of a lake ,Power spot ,Tohoku Region","風景 ,自然 ,藍藍的天空 ,晴天 ,觀光地 ,觀光 ,秋天 ,綠色 ,山 ,名所 ,紅葉 ,觀光名所 ,水面 ,絶景 ,景色 ,陽光明媚 ,東北 ,橋 ,8月 ,寺 ,湖 ,2月 ,森林 ,清爽 ,青森縣 ,景觀 ,藍色 ,湖面 ,能量景點 ,東北地方",,4.3,日本、〒039-4401 青森県むつ市大畑町 恐山
224,東北,青森,弘前城,弘前城,40.6074516,140.4641804,"Landscape ,Japan ,Nature ,Blue sky ,Sunny ,Sightseeing resort ,Tree ,Tourism ,Building ,Spring ,Flower ,Noted place ,Plant ,Travel ,Tourist attractions ,April ,Tourist attractions ,Daytime ,Cherry ,Winter ,Water surface ,Superb view ,Night view ,Night ,Pink ,In full bloom ,Landscape ,Sunny ,Snow ,Park","風景 ,日本 ,自然 ,藍藍的天空 ,晴天 ,觀光地 ,木頭 ,觀光 ,建設 ,春天 ,花 ,名所 ,植物 ,旅行 ,觀光名所 ,4月 ,中午 ,旅遊景點 ,櫻花 ,冬 ,水面 ,絶景 ,夜景 ,晚上 ,粉色 ,盛開 ,景色 ,陽光明媚 ,公園 ,雪",,4.3,日本、〒036-8356 青森県弘前市下白銀町１
228,東北,青森,城倉大橋,城倉大橋駐車場,40.6486797,140.8248065,"Landscape ,Japan ,Nature ,Sunny ,Sightseeing resort ,Tree ,Tourism ,Natural landscape ,Autumn ,Spring ,Green ,Mountain ,Noted place ,Autumn leaves ,Cloud ,Travel ,Tourist attractions ,Early summer ,Tourist attractions ,November ,Winter ,Superb view ,October ,Snow ,Tohoku ,Bridge ,June ,Red ,Yellow ,Trip","風景 ,日本 ,自然 ,晴天 ,觀光地 ,木頭 ,觀光 ,自然風景 ,秋天 ,春天 ,綠色 ,山 ,名所 ,紅葉 ,雲 ,旅行 ,觀光名所 ,初夏 ,11月 ,旅遊景點 ,冬 ,絶景 ,10月 ,雪 ,東北 ,橋 ,6月 ,紅色 ,黃色 ,旅",,4,日本、〒030-0111 青森県青森市荒川
232,九州,大分,由布岳,由布岳,33.282333,131.3903704,"Landscape ,Japan ,Nature ,Blue sky ,Sunny ,Sightseeing resort ,Tree ,Tourism ,Autumn ,Spring ,Green ,Mountain ,Flower ,Summer ,Noted place ,Cloud ,Plant ,Travel ,Tourist attractions ,April ,Early summer ,Tourist attractions ,November ,Cherry ,Winter ,Fresh green ,Superb view ,Pink ,In full bloom ,River","風景 ,日本 ,自然 ,藍藍的天空 ,晴天 ,觀光地 ,木頭 ,觀光 ,秋天 ,春天 ,綠色 ,山 ,花 ,夏 ,名所 ,雲 ,植物 ,旅行 ,觀光名所 ,4月 ,初夏 ,11月 ,旅遊景點 ,櫻花 ,冬 ,鮮綠 ,絶景 ,粉色 ,盛開 ,河",,4.7,日本、〒879-5102 大分県由布市湯布院町川上 由布岳
236,九州,大分,由布院溫泉,由布院温泉,33.2659713,131.3685983,,,,4.1,日本、〒879-5102 大分県由布市湯布院町川上
237,九州,大分,鐵輪溫泉,鉄輪温泉,33.316153,131.477786,"Landscape ,Japan ,Nature ,Sightseeing resort ,Tourism ,Noted place ,Travel ,Tourist attractions ,Tourist attractions ,Daytime ,May ,Night view ,City ,Night ,Light up ,Cityscape ,June ,Morning ,Trip ,Asia ,Light ,Kyushu ,December ,Townscape ,January ,Hot Spring ,Tradition ,Illumination ,Early in the morning ,Oita Prefecture","風景 ,日本 ,自然 ,觀光地 ,觀光 ,名所 ,旅行 ,觀光名所 ,中午 ,旅遊景點 ,5月 ,街 ,夜景 ,晚上 ,亮燈 ,街燈 ,6月 ,早上 ,旅 ,亞洲 ,光 ,九州 ,12月 ,市區街道 ,1 月 ,溫泉 ,傳統 ,霓彩燈飾 ,一大早 ,大分縣",,4.3,日本、〒874-0041 大分県別府市鉄輪７７９
238,九州,長崎,軍艦島(端島),端島,32.6276331,129.7385256,"Landscape ,Japan ,Nature ,Blue sky ,Sunny ,Sightseeing resort ,Tourism ,Building ,Natural landscape ,Summer ,Noted place ,Cloud ,Travel ,Tourist attractions ,Sea ,Tourist attractions ,Buildings ,Superb view ,October ,Landscape ,Sunny ,Blue ,August ,July ,Red ,World heritage site ,History ,Trip ,Coast ,Evening","風景 ,日本 ,自然 ,藍藍的天空 ,晴天 ,觀光地 ,觀光 ,建設 ,自然風景 ,夏 ,名所 ,雲 ,旅行 ,觀光名所 ,海 ,旅遊景點 ,建築物 ,絶景 ,10月 ,景色 ,陽光明媚 ,藍色 ,7月 ,8月 ,紅色 ,世界文化遺產 ,歷史 ,海岸 ,旅 ,傍晚",,3.8,日本、〒851-1315 長崎県長崎市高島町 端島
239,九州,長崎,稻佐山,長崎市 稲佐山公園,32.7591433,129.8474902,"Landscape ,Japan ,Nature ,Blue sky ,Sunny ,Sightseeing resort ,Tourism ,Natural landscape ,Noted place ,Cloud ,Travel ,Tourist attractions ,Sea ,Tourist attractions ,November ,May ,Superb view ,Night view ,City ,Night ,Landscape ,Sunny ,Snow ,Light up ,Cityscape ,Blue ,Beautiful ,Morning ,Trip ,Coast","風景 ,日本 ,自然 ,藍藍的天空 ,晴天 ,觀光地 ,觀光 ,自然風景 ,名所 ,雲 ,旅行 ,觀光名所 ,海 ,11月 ,旅遊景點 ,5月 ,絶景 ,街 ,夜景 ,晚上 ,景色 ,陽光明媚 ,雪 ,亮燈 ,街燈 ,藍色 ,美麗 ,早上 ,海岸 ,旅",,4.2,日本、〒852-8012 長崎県長崎市淵町
243,九州,長崎,出島,出島,32.7421957,129.8729178,"Landscape ,Japan ,Blue sky ,Sunny ,Sightseeing resort ,Tourism ,Building ,Summer ,Noted place ,Travel ,Tourist attractions ,Tourist attractions ,Superb view ,Night view ,City ,Night ,River ,Landscape ,Sunny ,Light up ,Bridge ,Cityscape ,June ,Blue ,July ,Morning ,History ,Evening ,Water ,September","風景 ,日本 ,藍藍的天空 ,晴天 ,觀光地 ,觀光 ,建設 ,夏 ,名所 ,旅行 ,觀光名所 ,旅遊景點 ,絶景 ,街 ,夜景 ,晚上 ,河 ,景色 ,陽光明媚 ,亮燈 ,橋 ,街燈 ,藍色 ,7月 ,6月 ,早上 ,歷史 ,傍晚 ,9月 ,水",,3.9,日本、〒850-0862 長崎県長崎市出島町６−１
244,中部,靜岡,黃金崎,黄金崎公園,34.8418723,138.7621772,"Landscape ,Japan ,Nature ,Blue sky ,Sunny ,Sightseeing resort ,Tree ,Tourism ,Natural landscape ,Summer ,Noted place ,Cloud ,Travel ,Tourist attractions ,Sea ,Tourist attractions ,May ,Superb view ,Landscape ,Sunny ,Park ,Green ,Blue ,July ,Rock ,Trip ,Coast ,Evening ,Asia ,September","風景 ,日本 ,自然 ,藍藍的天空 ,晴天 ,觀光地 ,木頭 ,觀光 ,自然風景 ,夏 ,名所 ,雲 ,旅行 ,觀光名所 ,海 ,旅遊景點 ,5月 ,絶景 ,景色 ,陽光明媚 ,公園 ,藍色 ,綠色 ,7月 ,岩石 ,海岸 ,旅 ,傍晚 ,9月 ,亞洲",,4.2,日本、〒410-3501 静岡県賀茂郡西伊豆町宇久須３５６６−７
245,中部,靜岡,大室山,大室山,34.9041764,139.0962908,"Landscape ,Nature ,Blue sky ,Sunny ,Sightseeing resort ,Tourism ,Mountain ,Noted place ,October ,January ,Shizuoka Prefecture ,Plateau, Highlands ,Mountain climbing ,Hiking ,Izu ,Shizuoka ,Izu peninsula ,Ito-shi ,Jizo (guardian deity of children) ,Mt. Omuro ,Ito ,Dormant volcano","風景 ,自然 ,藍藍的天空 ,晴天 ,觀光地 ,觀光 ,山 ,名所 ,10月 ,1 月 ,靜岡縣 ,高原 ,登山 ,健行 ,伊豆 ,靜岡 ,伊豆半島 ,伊東市 ,地藏 ,大室山 ,伊東 ,休火山",,4.4,日本、〒413-0234 静岡県伊東市池 大室山
249,關西,大阪,住吉大社,攝津國一之宮 住吉大社,34.6125224,135.4930622,"Landscape ,Japan ,Nature ,Blue sky ,Sunny ,Sightseeing resort ,Tree ,Tourism ,Building ,Green ,Noted place ,Travel ,Tourist attractions ,Tourist attractions ,Buildings ,May ,Fresh green ,Landscape ,Bridge ,Red ,History ,Shrine ,Trip ,Forest ,Pond ,Asia ,September ,Historic site ,Historic building ,Kinki","風景 ,日本 ,自然 ,藍藍的天空 ,晴天 ,觀光地 ,木頭 ,觀光 ,建設 ,綠色 ,名所 ,旅行 ,觀光名所 ,旅遊景點 ,建築物 ,5月 ,鮮綠 ,景色 ,橋 ,紅色 ,歷史 ,神社 ,旅 ,森 ,池 ,9月 ,亞洲 ,歷史遺址 ,歷史建築 ,近畿",,4.4,日本、〒558-0045 大阪府大阪市住吉区住吉２丁目９−８９
253,關西,大阪,通天閣,通天閣,34.6524992,135.5063058,"Landscape ,Japan ,Blue sky ,Sunny ,Sightseeing resort ,Tourism ,Building ,Noted place ,Travel ,Tourist attractions ,Tourist attractions ,November ,Buildings ,May ,Night view ,City ,Night ,Sunny ,Light up ,Cityscape ,Trip ,Pond ,Asia ,February ,Historic site ,Fine weather ,Kinki ,Townscape ,Kansai ,March","風景 ,日本 ,藍藍的天空 ,晴天 ,觀光地 ,觀光 ,建設 ,名所 ,旅行 ,觀光名所 ,11月 ,旅遊景點 ,建築物 ,5月 ,街 ,夜景 ,晚上 ,陽光明媚 ,亮燈 ,街燈 ,旅 ,池 ,亞洲 ,2月 ,歷史遺址 ,晴天 ,近畿 ,市區街道 ,關西 ,3月",,3.9,日本、〒556-0002 大阪府大阪市浪速区恵美須東１丁目１８−６
254,九州,別府,別府地獄巡迴,べっぷ地獄めぐり,33.3157951,131.4697627,"Landscape ,Japan ,Nature ,Blue sky ,Sunny ,Sightseeing resort ,Tourism ,Summer ,Noted place ,Travel ,Tourist attractions ,Tourist attractions ,May ,Sunny ,June ,Blue ,July ,Beautiful ,Red ,Kyushu ,Scenic spot ,Fresh ,Beautiful ,Hot Spring ,Blue ,Red ,Beautiful ,Bright ,Gentle ,Oita Prefecture","風景 ,日本 ,自然 ,藍藍的天空 ,晴天 ,觀光地 ,觀光 ,夏 ,名所 ,旅行 ,觀光名所 ,旅遊景點 ,5月 ,陽光明媚 ,藍色 ,6月 ,7月 ,紅色 ,美麗 ,九州 ,風景名勝區 ,清爽 ,溫泉 ,漂亮 ,藍色 ,紅 ,漂亮 ,光亮 ,溫和 ,大分縣",,4,日本、〒874-0000 大分県別府市大字鉄輪５５９−１
255,九州,長崎,長崎眼鏡橋,眼鏡橋,32.747146,129.880102,"Landscape ,Japan ,Sightseeing resort ,Tourism ,Spring ,Noted place ,Tourist attractions ,Tourist attractions ,Cherry ,Water surface ,Superb view ,Night view ,In full bloom ,Landscape ,Bridge ,June ,Morning ,Kyushu ,February ,March ,Scenic spot ,Cherry blossom ,Sunrise glow ,Background ,Landscape ,Scenic spot ,Hydrangea ,Dawn ,Early in the morning ,Important cultural property","風景 ,日本 ,觀光地 ,觀光 ,春天 ,名所 ,觀光名所 ,旅遊景點 ,櫻花 ,水面 ,絶景 ,夜景 ,盛開 ,景色 ,橋 ,6月 ,早上 ,2月 ,九州 ,3月 ,風景名勝區 ,櫻花 ,朝霞 ,景觀 ,背景 ,名勝 ,黎明 ,繡球花 ,一大早 ,重要文化財",,4,日本、〒850-0874 長崎県長崎市魚の町
256,九州,長崎,九十九島,九十九島,33.1923342,129.6037033,"Landscape ,Japan ,Nature ,Blue sky ,Sunny ,Sightseeing resort ,Tourism ,Spring ,Green ,Flower ,Summer ,Noted place ,Cloud ,Plant ,Travel ,Tourist attractions ,April ,Sea ,Tourist attractions ,Superb view ,In full bloom ,October ,Landscape ,Sunny ,Green ,August ,Blue ,Beautiful ,Red ,Trip","風景 ,日本 ,自然 ,藍藍的天空 ,晴天 ,觀光地 ,觀光 ,春天 ,綠色 ,花 ,夏 ,名所 ,雲 ,植物 ,旅行 ,觀光名所 ,4月 ,海 ,旅遊景點 ,絶景 ,盛開 ,10月 ,景色 ,陽光明媚 ,藍色 ,綠色 ,8月 ,紅色 ,美麗 ,海岸",,5,日本、九十九島
260,中部,長野,松本城,松本城,36.238652,137.9689551,"Landscape ,Japan ,Blue sky ,Sightseeing resort ,Tourism ,Building ,Autumn ,Green ,Flower ,Noted place ,Autumn leaves ,Cloud ,Plant ,Tourist attractions ,Water surface ,Pink ,October ,Park ,August ,History ,Pond ,Nagano Prefecture ,Historic site ,Historic building ,Castle ,Japanese maple ,Stone wall ,Shinshu ,Tourists ,Nagano","風景 ,日本 ,藍藍的天空 ,觀光地 ,觀光 ,建設 ,秋天 ,綠色 ,花 ,名所 ,紅葉 ,雲 ,植物 ,觀光名所 ,水面 ,粉色 ,10月 ,公園 ,8月 ,歷史 ,池 ,長野縣 ,歷史遺址 ,歷史建築 ,城 ,紅葉 ,石垣 ,信州 ,觀光客 ,長野",,4.4,日本、〒390-0873 長野県松本市丸の内４−１
264,中部,輕井澤,白絲瀑布(白絲之瀧),富士宮 白糸の滝,35.3127866,138.5875351,"Landscape ,Japan ,Nature ,Sightseeing resort ,Tourism ,Autumn ,Summer ,Noted place ,Autumn leaves ,Plant ,Travel ,Tourist attractions ,November ,Water surface ,River ,October ,August ,Trip ,Water ,Nagano Prefecture ,Japanese maple ,Waterfall ,Scenic spot ,Fresh ,Torrent ,Flow ,Clear stream ,River ,Shinshu ,Nagano","風景 ,日本 ,自然 ,觀光地 ,觀光 ,秋天 ,夏 ,名所 ,紅葉 ,植物 ,旅行 ,觀光名所 ,11月 ,水面 ,河 ,10月 ,8月 ,旅 ,水 ,長野縣 ,紅葉 ,瀑布 ,風景名勝區 ,清爽 ,溪流 ,流 ,清流 ,河川 ,信州 ,高原",,4.3,日本、〒418-0103 静岡県富士宮市上井出２７３−１
265,中部,長野,千疊敷冰斗,千畳敷カール,35.7798198,137.8134709,"Landscape ,Japan ,Nature ,Blue sky ,Sunny ,Sightseeing resort ,Tourism ,Autumn ,Green ,Mountain ,Flower ,Summer ,Noted place ,Autumn leaves ,Cloud ,Plant ,Travel ,Tourist attractions ,Early summer ,Tourist attractions ,Winter ,Fresh green ,In full bloom ,Sunny ,Snow ,Green ,Blue ,August ,July ,Yellow","風景 ,日本 ,自然 ,藍藍的天空 ,晴天 ,觀光地 ,觀光 ,秋天 ,綠色 ,山 ,花 ,夏 ,名所 ,紅葉 ,雲 ,植物 ,旅行 ,觀光名所 ,初夏 ,旅遊景點 ,冬 ,鮮綠 ,盛開 ,陽光明媚 ,雪 ,藍色 ,綠色 ,7月 ,8月 ,黃色",,4.5,日本、〒399-4117 長野県駒ヶ根市赤穂１
266,中國,鳥取,浦富海岸,浦富海岸,35.5900867,134.3295689,"Landscape ,Japan ,Nature ,Blue sky ,Sunny ,Sightseeing resort ,Tourism ,Green ,Mountain ,Summer ,Noted place ,Cloud ,Plant ,Travel ,Tourist attractions ,Sea ,Tourist attractions ,Daytime ,Water surface ,May ,October ,Sunny ,Green ,August ,Blue ,July ,Rock ,Trip ,Coast ,Asia","風景 ,日本 ,自然 ,藍藍的天空 ,晴天 ,觀光地 ,觀光 ,綠色 ,山 ,夏 ,名所 ,雲 ,植物 ,旅行 ,觀光名所 ,海 ,中午 ,旅遊景點 ,水面 ,5月 ,10月 ,陽光明媚 ,藍色 ,綠色 ,7月 ,8月 ,岩石 ,海岸 ,旅 ,亞洲",,4.3,日本、〒681-0003 鳥取県岩美郡岩美町浦富
267,中國,島根,出雲大社,出雲大社,35.402035,132.685456,"Japan ,Blue sky ,Sightseeing resort ,Tourism ,Building ,Noted place ,Cloud ,Travel ,Tourist attractions ,Buildings ,May ,July ,Shrine ,Harmony ,March ,Grounds of a shrine ,Approach ,Chugoku Region ,Torii ,Shrines and temples ,Stone path ,Power spot ,Worshipping ,National treasure ,Visit (to a temple or a shrine) ,Pine ,Shimane Prefecture ,San'in ,Sacred rice straw festoon ,Main shrine","日本 ,藍藍的天空 ,觀光地 ,觀光 ,建設 ,名所 ,雲 ,旅行 ,觀光名所 ,建築物 ,5月 ,7月 ,神社 ,和 ,3月 ,境内 ,中國地區 ,参道 ,鳥居 ,神社佛閣 ,石疊道路 ,能量景點 ,參拜 ,國寶 ,參訪 ,松樹 ,島根縣 ,山陰 ,注連縄 ,本殿",,4.6,日本、〒699-0701 島根県出雲市大社町杵築東１９５
268,四國,德島,奧祖谷 藤蔓橋,奥祖谷（おくいや）二重かずら橋・野猿,33.8534621,134.0455775,"Landscape ,Japan ,Sightseeing resort ,Tourism ,Green ,Noted place ,Autumn leaves ,Travel ,Tourist attractions ,April ,Tourist attractions ,Buildings ,Fresh green ,River ,October ,Landscape ,Bridge ,July ,History ,Trip ,February ,Valley, Canyon, Gorge ,Scenic spot ,Torrent ,Flow ,Clear stream ,Countryside ,Shikoku ,Landscape ,Important cultural property","風景 ,日本 ,觀光地 ,觀光 ,綠色 ,名所 ,紅葉 ,旅行 ,觀光名所 ,4月 ,旅遊景點 ,建築物 ,鮮綠 ,河 ,10月 ,景色 ,橋 ,7月 ,歷史 ,旅 ,2月 ,溪谷 ,風景名勝區 ,溪流 ,流 ,清流 ,田舎 ,四國 ,景觀 ,重要文化財",,4.4,日本、〒778-0201 徳島県三好市東祖谷菅生６２０
269,四國,德島,祖谷溪 小便小僧,祖谷渓の小便小僧像,33.923572,133.8184851,"Landscape ,Nature ,Sightseeing resort ,Tourism ,Autumn ,Mountain ,Noted place ,Autumn leaves ,Travel ,November ,Superb view ,River ,Landscape ,Green ,August ,July ,Yellow ,Trip ,Valley, Canyon, Gorge ,December ,Forest ,Torrent ,River ,Shikoku ,Cliff ,Valley ,Canyon ,Tokushima Prefecture ,Drive","風景 ,自然 ,觀光地 ,觀光 ,秋天 ,山 ,名所 ,紅葉 ,旅行 ,11月 ,絶景 ,河 ,景色 ,綠色 ,7月 ,8月 ,黃色 ,旅 ,溪谷 ,12月 ,森林 ,溪流 ,河川 ,四國 ,崖 ,山谷 ,峽谷 ,德島縣 ,磁碟機",,3.9,日本、〒778-0165 徳島県三好市池田町松尾
270,關西,奈良,奈良公園,奈良公園,34.685047,135.843012,"Landscape ,Japan ,Nature ,Blue sky ,Sunny ,Sightseeing resort ,Tree ,Tourism ,Autumn ,Green ,Noted place ,Autumn leaves ,Cloud ,Travel ,Tourist attractions ,Tourist attractions ,November ,Water surface ,Fresh green ,October ,Landscape ,Sunny ,Park ,Morning ,Trip ,Forest ,Pond ,Asia ,Water ,September","風景 ,日本 ,自然 ,藍藍的天空 ,晴天 ,觀光地 ,木頭 ,觀光 ,秋天 ,綠色 ,名所 ,紅葉 ,雲 ,旅行 ,觀光名所 ,11月 ,旅遊景點 ,水面 ,鮮綠 ,10月 ,景色 ,陽光明媚 ,公園 ,早上 ,旅 ,森 ,池 ,9月 ,亞洲 ,水",,4.5,日本、〒630-8211 奈良県奈良市
274,關西,奈良,吉野山,吉野山,34.356433,135.870617,"Landscape ,Nature ,Blue sky ,Sunny ,Tourism ,Spring ,Mountain ,Flower ,Summer ,Noted place ,Plant ,Tourist attractions ,April ,Early summer ,Tourist attractions ,Cherry ,Pink ,In full bloom ,July ,World heritage site ,Asia ,World cultural heritage ,Kinki ,Cultural heritage ,Kansai ,Cherry blossom ,Cherry blossom ,Kinki Region ,Pink ,Nara Prefecture","風景 ,自然 ,藍藍的天空 ,晴天 ,觀光 ,春天 ,山 ,花 ,夏 ,名所 ,植物 ,觀光名所 ,4月 ,初夏 ,旅遊景點 ,櫻花 ,粉色 ,盛開 ,7月 ,世界文化遺產 ,亞洲 ,世界文化遺產 ,文化遺產 ,近畿 ,關西 ,櫻花 ,櫻花 ,近畿地區 ,桃色 ,奈良縣",,4.3,日本、〒639-3115 奈良県吉野郡吉野町吉野山
275,關西,奈良,若草山,若草山,34.6911496,135.8544345,"Landscape ,Japan ,Nature ,Sunny ,Sightseeing resort ,Tree ,Tourism ,Building ,Autumn ,Green ,Mountain ,Summer ,Noted place ,Cloud ,Travel ,Tourist attractions ,April ,Tourist attractions ,Buildings ,Winter ,Fresh green ,Superb view ,Night view ,City ,October ,Landscape ,Park ,Cityscape ,Green ,August","風景 ,日本 ,自然 ,晴天 ,觀光地 ,木頭 ,觀光 ,建設 ,秋天 ,綠色 ,山 ,夏 ,名所 ,雲 ,旅行 ,觀光名所 ,4月 ,旅遊景點 ,建築物 ,冬 ,鮮綠 ,絶景 ,街 ,夜景 ,10月 ,景色 ,公園 ,街燈 ,綠色 ,7月",,4.5,日本、〒630-8211 奈良県奈良市雑司町 若草山
279,中部,福井,一乘谷朝倉氏遺跡,一乗谷朝倉氏遺跡,35.9994633,136.2959322,"Japan ,Blue sky ,Sunny ,Sightseeing resort ,Tree ,Tourism ,Spring ,Green ,Noted place ,Tourist attractions ,April ,Tourist attractions ,Cherry ,May ,Fresh green ,Pink ,In full bloom ,October ,Bridge ,Green ,History ,Historic site ,Historic building ,Townscape ,Hokuriku ,Castle ,Train ,Important cultural property ,Local line ,Paper lanterns","日本 ,藍藍的天空 ,晴天 ,觀光地 ,木頭 ,觀光 ,春天 ,綠色 ,名所 ,觀光名所 ,4月 ,旅遊景點 ,櫻花 ,5月 ,鮮綠 ,粉色 ,盛開 ,10月 ,橋 ,綠色 ,歷史 ,歷史遺址 ,歷史建築 ,市區街道 ,北陸 ,城 ,列車 ,重要文化財 ,當地線 ,提燈",,4.1,日本、〒910-2153 福井県福井市城戸ノ内町
280,九州,福岡,門司港,門司港レトロ,33.9461135,130.962684,"Landscape ,Japan ,Sightseeing resort ,Tourism ,Building ,Noted place ,Travel ,Tourist attractions ,Tourist attractions ,Buildings ,Night view ,City ,Night ,Light up ,Cityscape ,August ,Trip ,Asia ,Light ,Kyushu ,February ,Historic building ,Townscape ,Night sky ,City ,Building ,Illumination ,Lighting ,Retro ,Event","風景 ,日本 ,觀光地 ,觀光 ,建設 ,名所 ,旅行 ,觀光名所 ,旅遊景點 ,建築物 ,街 ,夜景 ,晚上 ,亮燈 ,街燈 ,8月 ,旅 ,亞洲 ,光 ,2月 ,九州 ,歷史建築 ,市區街道 ,夜空 ,都市 ,大樓 ,霓彩燈飾 ,照明 ,復古 ,都市風景",,4.1,日本、〒801-0852 福岡県北九州市門司区９
281,東北,福島,吾妻小富士,吾妻小富士,37.7218908,140.2640766,"Landscape ,Japan ,Nature ,Blue sky ,Sunny ,Sightseeing resort ,Tourism ,Autumn ,Mountain ,Summer ,Noted place ,Autumn leaves ,Cloud ,Plant ,Travel ,November ,Winter ,Water surface ,October ,Landscape ,Sunny ,Snow ,Tohoku ,Blue ,July ,Red ,Morning ,Yellow ,Lake ,Yellow leaf","風景 ,日本 ,自然 ,藍藍的天空 ,晴天 ,觀光地 ,觀光 ,秋天 ,山 ,夏 ,名所 ,紅葉 ,雲 ,植物 ,旅行 ,11月 ,冬 ,水面 ,10月 ,景色 ,陽光明媚 ,雪 ,東北 ,藍色 ,7月 ,紅色 ,早上 ,黃色 ,湖 ,黄葉",,4.5,日本、〒960-2151 福島県福島市桜本 吾妻小富士
282,東北,福島,三春瀧櫻,三春滝桜,37.407684,140.5000832,"Landscape ,Japan ,Nature ,Blue sky ,Sunny ,Natural landscape ,Spring ,Flower ,Plant ,Tourist attractions ,April ,Tourist attractions ,Cherry ,May ,Pink ,In full bloom ,Tohoku ,Light up ,Beautiful ,Yellow ,Asia ,Fine weather ,Flower garden ,Harmony ,Fresh ,Beautiful ,Cherry blossom ,Cherry blossom ,Tree ,Pink","風景 ,日本 ,自然 ,藍藍的天空 ,晴天 ,自然風景 ,春天 ,花 ,植物 ,觀光名所 ,4月 ,旅遊景點 ,櫻花 ,5月 ,粉色 ,盛開 ,東北 ,亮燈 ,美麗 ,黃色 ,亞洲 ,晴天 ,花卉園 ,和 ,清爽 ,漂亮 ,櫻花 ,櫻花 ,樹木 ,桃色",,4.4,日本、〒963-7714 福島県田村郡三春町滝桜久保１１５
283,東北,福島,阿武隈洞,あぶくま洞,37.3442655,140.6737476,"Landscape ,Nature ,Sightseeing resort ,Tourist attractions ,October ,Tohoku ,Light up ,July ,Rock ,September ,Fantastic ,Lighting ,Stone ,Mysterious ,Fukushima Prefecture ,Mother nature ,Fukushima ,Cave ,Limestone cave ,Stalactite ,Rock ,Limestone ,Fantasy ,Underground ,Abukuma-do ,Tamura-shi ,Karst landform","風景 ,自然 ,觀光地 ,觀光名所 ,10月 ,東北 ,亮燈 ,7月 ,岩石 ,9月 ,幻想的 ,照明 ,石頭 ,神秘的 ,福島縣 ,福島 ,大自然 ,洞穴 ,鐘乳洞 ,鐘乳石 ,岩石 ,石灰岩 ,幻想的 ,地下 ,阿武隈洞 ,田村市 ,喀斯特地形",,4.1,日本、〒963-3601 福島県田村市滝根町菅谷東釜山１番地
284,關西,兵庫,姬路城,姫路城,34.839449,134.6939047,"Blue sky ,Sightseeing resort ,Spring ,Flower ,April ,Cherry ,World heritage site ,Historic site ,Castle ,Stone wall ,Castle tower ,Hyogo Prefecture ,National treasure ,Castle tower ,100 best castles in Japan ,Himeji Castle ,Himeji-shi ,Special national historic site","藍藍的天空 ,觀光地 ,春天 ,花 ,4月 ,櫻花 ,世界文化遺產 ,歷史遺址 ,城 ,石垣 ,天守閣 ,兵庫縣 ,國寶 ,天守 ,日本100名城 ,姫路城 ,姬路市 ,國家特別歷史遺址",,4.6,日本、〒670-0012 兵庫県姫路市本町６８
288,北海道,道央,小樽音樂盒堂,小樽オルゴール堂,43.1906019,141.0077703,"Landscape ,Japan ,Blue sky ,Sightseeing resort ,Tourism ,Building ,Mountain ,Tourist attractions ,Tourist attractions ,Winter ,Hokkaido ,Snow ,Cityscape ,History ,February ,December ,Snowscape ,March ,January ,Snow coverage ,Tourists ,Retro ,Traffic ,Unmelted snow ,Shopping street ,City lights ,Steam ,Cloudy ,Street ,Canal","風景 ,日本 ,藍藍的天空 ,觀光地 ,觀光 ,建設 ,山 ,觀光名所 ,旅遊景點 ,冬 ,北海道 ,雪 ,街燈 ,歷史 ,2月 ,12月 ,雪景 ,3月 ,1 月 ,積雪 ,觀光客 ,復古 ,交通 ,殘雪 ,商店街 ,街燈 ,蒸氣 ,陰天 ,街道 ,運河",,4.1,日本、〒047-0015 北海道小樽市住吉町４−４−１
289,北海道,道北,銀泉台,銀泉台,43.6708541,142.9606517,"Landscape ,Nature ,Blue sky ,Sunny ,Sightseeing resort ,Tree ,Autumn ,Mountain ,Autumn leaves ,Plant ,Superb view ,Hokkaido ,Landscape ,Sunny ,Green ,Blue ,July ,Yellow ,Road ,Forest ,September ,Splendid ,Forest ,Scenic spot ,National Park ,Tree ,Mountain climbing ,Gentle ,Mountain ,Slope","風景 ,自然 ,藍藍的天空 ,晴天 ,觀光地 ,木頭 ,秋天 ,山 ,紅葉 ,植物 ,絶景 ,北海道 ,景色 ,陽光明媚 ,藍色 ,綠色 ,7月 ,黃色 ,道路 ,森 ,9月 ,鮮明 ,森林 ,風景名勝區 ,樹木 ,國家公園 ,登山 ,溫和 ,斜面 ,山岳",,5,日本、〒078-1701 北海道上川郡上川町
290,北海道,道央,十勝連峰,十勝岳,43.4180311,142.686264,"Landscape ,Japan ,Nature ,Blue sky ,Sunny ,Sightseeing resort ,Tree ,Tourism ,Autumn ,Green ,Mountain ,Summer ,Autumn leaves ,Cloud ,Plant ,Travel ,Tourist attractions ,Superb view ,Hokkaido ,October ,Sunny ,Snow ,Green ,Beautiful ,Red ,Yellow ,Rock ,Trip ,Evening ,Forest","風景 ,日本 ,自然 ,藍藍的天空 ,晴天 ,觀光地 ,木頭 ,觀光 ,秋天 ,綠色 ,山 ,夏 ,紅葉 ,雲 ,植物 ,旅行 ,旅遊景點 ,絶景 ,北海道 ,10月 ,陽光明媚 ,雪 ,綠色 ,紅色 ,美麗 ,黃色 ,岩石 ,旅 ,傍晚 ,森",,4.5,日本、〒071-0235 北海道上川郡美瑛町白金 十勝岳
291,北海道,道北,旭山動物園,旭川市旭山動物園,43.7684103,142.480038,"Landscape ,Tourism ,Noted place ,Travel ,Tourist attractions ,Tourist attractions ,November ,Winter ,Hokkaido ,June ,Water ,December ,January ,Blue ,Animal ,Tunnel ,Underwater ,Swim ,Passage ,Northern country ,Water tank ,Zoo ,Asahikawa-shi ,Asahiyama Zoo ,Exhibition ,Cold ,Seal","風景 ,觀光 ,名所 ,旅行 ,觀光名所 ,11月 ,旅遊景點 ,冬 ,北海道 ,6月 ,水 ,12月 ,1 月 ,藍色 ,動物 ,隧道 ,水中 ,游泳 ,通道 ,北國 ,水箱 ,動物園 ,旭川市 ,旭山動物園 ,展示 ,寒冷 ,海豹",,4.4,日本、〒078-8205 北海道旭川市東旭川町倉沼
295,北海道,道北,白鬚之瀧,しらひげの滝,43.4746092,142.6393959,"Landscape ,Japan ,Nature ,Blue sky ,Sunny ,Sightseeing resort ,Tree ,Tourism ,Autumn ,Green ,Mountain ,Summer ,Noted place ,Autumn leaves ,Plant ,Travel ,Tourist attractions ,Early summer ,Tourist attractions ,Daytime ,Winter ,Water surface ,Fresh green ,Superb view ,River ,Hokkaido ,October ,Landscape ,Snow ,Green","風景 ,日本 ,自然 ,藍藍的天空 ,晴天 ,觀光地 ,木頭 ,觀光 ,秋天 ,綠色 ,山 ,夏 ,名所 ,紅葉 ,植物 ,旅行 ,觀光名所 ,初夏 ,中午 ,旅遊景點 ,冬 ,水面 ,鮮綠 ,絶景 ,河 ,北海道 ,10月 ,景色 ,雪 ,藍色",,4.2,日本、〒071-0235 北海道上川郡美瑛町白金
296,北海道,道東,能取湖,能取湖,44.0593087,144.151037,"Landscape ,Japan ,Nature ,Blue sky ,Sunny ,Sightseeing resort ,Tourism ,Autumn ,Flower ,Autumn leaves ,Cloud ,Plant ,Water surface ,Hokkaido ,Red ,Lake ,September ,Scenic spot ,Background ,Landscape ,Red ,Gregariousness ,Eastern part of Hokkaido ,Quasi-national park ,Best in Japan ,Sea of Okhotsk ,Abashiri-shi ,Okhotsk","風景 ,日本 ,自然 ,藍藍的天空 ,晴天 ,觀光地 ,觀光 ,秋天 ,花 ,紅葉 ,雲 ,植物 ,水面 ,北海道 ,紅色 ,湖 ,9月 ,風景名勝區 ,景觀 ,背景 ,紅 ,殖民地 ,道東 ,國家公園 ,日本第一 ,鄂霍茨克海 ,網走市 ,鄂霍茨克",,4,日本、北海道網走市 能取湖
297,關西,兵庫,好古園,姫路城西御屋敷跡庭園 好古園,34.8379444,134.6897542,,,,4.4,日本、〒670-0025 兵庫県姫路市本町６８
301,中部,富山,富岩運河環水公園,富岩運河環水公園 (カナルパーク),36.709414,137.2124899,"Landscape ,Japan ,Nature ,Blue sky ,Sunny ,Sightseeing resort ,Tree ,Tourism ,Spring ,Green ,Mountain ,Travel ,Winter ,May ,Fresh green ,River ,Sunny ,Park ,Snow ,February ,Fine weather ,Hokuriku ,Snow coverage ,River ,Blue ,Toyama Prefecture ,Viewing platform ,Northern Alps ,Lawn ,Toyama","風景 ,日本 ,自然 ,藍藍的天空 ,晴天 ,觀光地 ,木頭 ,觀光 ,春天 ,綠色 ,山 ,旅行 ,冬 ,5月 ,鮮綠 ,河 ,陽光明媚 ,公園 ,雪 ,2月 ,晴天 ,北陸 ,積雪 ,河川 ,藍色 ,展望台 ,富山縣 ,北阿爾卑斯山 ,草坪 ,富山",,4.3,日本、〒930-0805 富山県富山市湊入船町１
305,九州,宮崎,鬼之洗衣板,鬼の洗濯板,31.8034549,131.4738179,"Landscape ,Japan ,Nature ,Blue sky ,Sunny ,Sightseeing resort ,Tourism ,Building ,Tourist attractions ,Sea ,Tourist attractions ,Buildings ,Water surface ,Superb view ,Landscape ,Blue ,July ,Rock ,Shrine ,Coast ,Asia ,Water ,Kyushu ,Scenic spot ,January ,Horizon ,Approach ,Blue ,Landscape ,Scenic spot","風景 ,日本 ,自然 ,藍藍的天空 ,晴天 ,觀光地 ,觀光 ,建設 ,觀光名所 ,海 ,旅遊景點 ,建築物 ,水面 ,絶景 ,景色 ,藍色 ,7月 ,岩石 ,神社 ,海岸 ,亞洲 ,水 ,九州 ,風景名勝區 ,1 月 ,水平線 ,参道 ,景觀 ,藍色 ,名勝",,4.4,日本、〒889-2162 宮崎県宮崎市青島１３
306,沖繩,沖繩,竹富島,竹富島,24.3268759,124.0891969,"Landscape ,Japan ,Nature ,Blue sky ,Sunny ,Sightseeing resort ,Tourism ,Building ,Summer ,Noted place ,Cloud ,Plant ,Travel ,Tourist attractions ,Sea ,Daytime ,Water surface ,Landscape ,Sunny ,Blue ,July ,History ,Trip ,Coast ,Asia ,Water ,Vehicle ,Harmony ,Townscape ,Island","風景 ,日本 ,自然 ,藍藍的天空 ,晴天 ,觀光地 ,觀光 ,建設 ,夏 ,名所 ,雲 ,植物 ,旅行 ,觀光名所 ,海 ,中午 ,水面 ,景色 ,陽光明媚 ,藍色 ,7月 ,歷史 ,海岸 ,旅 ,亞洲 ,水 ,遊樂設施 ,和 ,市區街道 ,島",,4.5,日本、〒907-1101 沖縄県八重山郡竹富町竹富 竹富島
307,北海道,道北,天賣島,天売島,44.4260616,141.3185719,"Landscape ,Japan ,Nature ,Blue sky ,Uninhabited ,Green ,Sea ,Daytime ,Superb view ,Hokkaido ,August ,Rock ,Coast ,September ,Scenic spot ,Island ,Stone ,Cliff ,Grass ,Japan Sea ,Glassland ,Cape ,Rocky stretch ,Strangely shaped rock ,Remote island ,Blue ,Seaside ,Prepitous cliff ,Teurito island","風景 ,日本 ,自然 ,藍藍的天空 ,吾人 ,綠色 ,海 ,中午 ,絶景 ,北海道 ,8月 ,岩石 ,海岸 ,9月 ,風景名勝區 ,島 ,石頭 ,崖 ,草 ,日本海 ,草原 ,海角 ,岩場 ,奇岩 ,離島 ,藍色 ,海邊 ,斷崖絕壁 ,天賣島",,4.1,日本、北海道苫前郡羽幌町天売 天売島
311,北海道,道北,宗谷丘陵,宗谷丘陵,45.4814842,141.9166939,"Landscape ,Japan ,Nature ,Blue sky ,Hokkaido ,August ,Hill ,Animal ,Glassland ,Strait ,Large ,Grazing ,Sea of Okhotsk ,Stock farm ,Cow ,Livestock ,Wakkanai ,Wind power generation ,Dairy farming ,Wind turbine ,Pasture ,Dairy cattle ,Soya Hill","風景 ,日本 ,自然 ,藍藍的天空 ,北海道 ,8月 ,小山 ,動物 ,草原 ,海峽 ,寬 ,放牧 ,鄂霍茨克海 ,牧場 ,牛 ,家畜 ,稚内 ,風力發電 ,風車 ,酪農 ,牧草 ,乳牛 ,宗谷丘陵",,4.7,日本、〒098-6384 北海道稚内市宗谷村 峰岡
312,中部,富山,室堂,室堂,36.57708,137.5948,"Landscape ,Japan ,Nature ,Blue sky ,Sunny ,Sightseeing resort ,Mountain ,Summer ,Plant ,Travel ,Sunny ,Snow ,Blue ,July ,September ,Nagano Prefecture ,Hokuriku ,Hot Spring ,Sunset ,Shinshu ,Nagano ,Sunset ,Toyama Prefecture ,Mountain climbing ,Trekking ,Hiking ,Mountain ,Northern Alps ,Unmelted snow ,Toyama","風景 ,日本 ,自然 ,藍藍的天空 ,晴天 ,觀光地 ,山 ,夏 ,植物 ,旅行 ,陽光明媚 ,雪 ,藍色 ,7月 ,9月 ,長野縣 ,北陸 ,溫泉 ,日落 ,信州 ,長野 ,日落 ,登山 ,富山縣 ,遠足  ,健行 ,山岳 ,北阿爾卑斯山 ,殘雪 ,富山",,4.6,日本、〒930-1406 富山県中新川郡立山町芦峅寺
313,九州,宮崎,堀切峠,堀切峠,31.776665,131.4823986,"Landscape ,Japan ,Nature ,Blue sky ,Sunny ,Sightseeing resort ,Cloud ,Tourist attractions ,April ,Early summer ,Sea ,Tourist attractions ,Water surface ,Fresh green ,Superb view ,Blue ,July ,Coast ,Kyushu ,Scenic spot ,January ,Horizon ,Landscape ,Morning sun ,Sunset ,Sea level ,Wave ,Viewing platform ,Miyazaki Prefecture ,Pacific","風景 ,日本 ,自然 ,藍藍的天空 ,晴天 ,觀光地 ,雲 ,觀光名所 ,4月 ,海 ,初夏 ,旅遊景點 ,水面 ,鮮綠 ,絶景 ,藍色 ,7月 ,海岸 ,九州 ,風景名勝區 ,1 月 ,水平線 ,景觀 ,朝日 ,日落 ,海面 ,波 ,展望台 ,宮崎縣 ,太平洋",,4.2,日本、〒889-2164 宮崎県宮崎市折生迫
314,中部,新潟,高田公園之櫻,高田公園,37.1078867,138.2548332,"Landscape ,Blue sky ,Sunny ,Spring ,Flower ,April ,Cherry ,Light up ,Water ,Castle ,Sunset ,Prunus yedoensis ,Roadside cherry trees ,Lighting ,Niigata Prefecture ,Cherry-blossom viewing ,Night cherry blossoms ,Dusk ,Ruined castle ,Evening view ,Castle building ,Niigata ,Turret ,Magic hour ,Mirror ,Joetsu-shi ,Takada Park ,Old castle","風景 ,藍藍的天空 ,晴天 ,春天 ,花 ,4月 ,櫻花 ,亮燈 ,水 ,城 ,日落 ,染井吉野櫻 ,櫻花行道樹 ,照明 ,賞花 ,夜櫻 ,新潟縣 ,傍晚 ,城址 ,日落 ,城 ,新潟 ,櫓 ,魔法時刻 ,鏡 ,上越市 ,高田公園 ,古堡",,4.2,日本、〒943-0835 新潟県上越市本城町44−１
315,中部,富士山,茶田與富士山,富士山,35.3606255,138.7273634,"Landscape ,Japan ,Nature ,Blue sky ,Sunny ,Tourism ,Natural landscape ,Spring ,Green ,Mountain ,Noted place ,Plant ,Tourist attractions ,April ,Early summer ,Tourist attractions ,Daytime ,May ,Fresh green ,Superb view ,Sunny ,Green ,World heritage site ,Morning ,Asia ,Fine weather ,Leaf ,Cultural heritage ,Fresh ,Mt. Fuji","風景 ,日本 ,自然 ,藍藍的天空 ,晴天 ,觀光 ,自然風景 ,春天 ,綠色 ,山 ,名所 ,植物 ,觀光名所 ,4月 ,初夏 ,中午 ,旅遊景點 ,5月 ,鮮綠 ,絶景 ,陽光明媚 ,綠色 ,世界文化遺產 ,早上 ,亞洲 ,晴天 ,葉 ,文化遺產 ,清爽 ,富士山",,4.5,日本、〒418-0112 静岡県富士宮市北山 富士山
316,四國,德島,大步危峽,道の駅 大歩危 (ラピス大歩危),33.881626,133.7599061,"Landscape ,Japan ,Nature ,Sightseeing resort ,Tourism ,Autumn ,Green ,Mountain ,Autumn leaves ,Travel ,Tourist attractions ,Early summer ,November ,May ,River ,Landscape ,Park ,June ,August ,Yellow ,Rock ,Water ,Valley, Canyon, Gorge ,Scenic spot ,Torrent ,Flow ,Clear stream ,Boat ,River ,Shikoku","風景 ,日本 ,自然 ,觀光地 ,觀光 ,秋天 ,綠色 ,山 ,紅葉 ,旅行 ,觀光名所 ,初夏 ,11月 ,5月 ,河 ,景色 ,公園 ,6月 ,8月 ,黃色 ,岩石 ,水 ,溪谷 ,風景名勝區 ,溪流 ,流 ,清流 ,船 ,河川 ,四國",,3.7,日本、〒779-5452 徳島県三好市山城町上名１５５３−１
317,關東,東京,八丈島,八丈島,33.1030212,139.8035566,"Landscape ,Japan ,Nature ,Blue sky ,Sunny ,Sightseeing resort ,Tourism ,Autumn ,Green ,Flower ,Summer ,Noted place ,Travel ,Sea ,November ,Rock ,Coast ,September ,Tokyo Metropolitan Area ,Flower garden ,Splendid ,March ,Fresh ,Island ,Countryside ,Plateau, Highlands ,Tokyo ,Bright ,Hill ,Animal","風景 ,日本 ,自然 ,藍藍的天空 ,晴天 ,觀光地 ,觀光 ,秋天 ,綠色 ,花 ,夏 ,名所 ,旅行 ,海 ,11月 ,岩石 ,海岸 ,9月 ,東京都 ,花卉園 ,鮮明 ,3月 ,清爽 ,島 ,田舎 ,高原 ,東京 ,光亮 ,小山 ,動物",,4.3,日本、東京都八丈町 八丈島
318,中部,新潟,美人林,美人林,37.0998276,138.6186892,"Landscape ,Japan ,Nature ,Sunny ,Sightseeing resort ,Tree ,Tourism ,Autumn ,Green ,Mountain ,Noted place ,Autumn leaves ,Plant ,Travel ,April ,Tourist attractions ,November ,Water surface ,May ,Fresh green ,Superb view ,Landscape ,Snow ,Green ,Beautiful ,Yellow ,Lake ,Trip ,Forest ,Pond","風景 ,日本 ,自然 ,晴天 ,觀光地 ,木頭 ,觀光 ,秋天 ,綠色 ,山 ,名所 ,紅葉 ,植物 ,旅行 ,4月 ,11月 ,旅遊景點 ,水面 ,5月 ,鮮綠 ,絶景 ,景色 ,雪 ,綠色 ,美麗 ,黃色 ,湖 ,旅 ,森 ,池",,4,日本、〒942-1411 新潟県十日町市松之山松口１７１２−２
319,關西,大阪,天王寺公園,天王寺公園,34.6485183,135.5110896,"Landscape ,Japan ,Nature ,Blue sky ,Sunny ,Sightseeing resort ,Tree ,Tourism ,Building ,Spring ,Green ,Summer ,Noted place ,Plant ,Travel ,Tourist attractions ,Tourist attractions ,Winter ,May ,Fresh green ,Night view ,City ,Night ,Landscape ,Sunny ,Park ,Light up ,Bridge ,August ,July","風景 ,日本 ,自然 ,藍藍的天空 ,晴天 ,觀光地 ,木頭 ,觀光 ,建設 ,春天 ,綠色 ,夏 ,名所 ,植物 ,旅行 ,觀光名所 ,旅遊景點 ,冬 ,5月 ,鮮綠 ,街 ,夜景 ,晚上 ,景色 ,陽光明媚 ,公園 ,亮燈 ,橋 ,7月 ,8月",,4,日本、〒543-0063 大阪府大阪市天王寺区茶臼山町５−５５
320,關東,東京,日比谷公園,日比谷公園 草地広場,35.6744393,139.7553875,"Landscape ,Japan ,Nature ,Blue sky ,Sunny ,Sightseeing resort ,Tree ,Tourism ,Building ,Autumn ,Noted place ,Autumn leaves ,Tourist attractions ,April ,Early summer ,Tourist attractions ,November ,Buildings ,Water surface ,May ,Fresh green ,City ,Landscape ,Sunny ,Park ,Cityscape ,Green ,Blue ,Red ,Yellow","風景 ,日本 ,自然 ,藍藍的天空 ,晴天 ,觀光地 ,木頭 ,觀光 ,建設 ,秋天 ,名所 ,紅葉 ,觀光名所 ,4月 ,初夏 ,11月 ,旅遊景點 ,建築物 ,水面 ,5月 ,鮮綠 ,街 ,景色 ,陽光明媚 ,公園 ,街燈 ,藍色 ,綠色 ,紅色 ,黃色",,4.1,日本、〒100-0012 東京都千代田区日比谷公園１−６
324,關西,京都,哲學之道,哲学の道,35.0268199,135.7953591,"Landscape ,Japan ,Sightseeing resort ,Tourism ,Spring ,Flower ,Noted place ,Plant ,Travel ,Tourist attractions ,April ,Tourist attractions ,Cherry ,Water surface ,Pink ,In full bloom ,River ,Road ,Asia ,Water ,Kyoto ,Harmony ,Kinki ,Kansai ,Japanese-style ,Cherry blossom ,River ,Cherry blossom ,Promenade ,Orient","風景 ,日本 ,觀光地 ,觀光 ,春天 ,花 ,名所 ,植物 ,旅行 ,觀光名所 ,4月 ,旅遊景點 ,櫻花 ,水面 ,粉色 ,盛開 ,河 ,道路 ,亞洲 ,水 ,京都 ,和 ,近畿 ,關西 ,日本風格 ,櫻花 ,河川 ,櫻花 ,遊歩道 ,東洋",,4.4,日本、〒606-8427 京都府京都市左京区鹿ケ谷法然院西町
328,四國,香川,小豆島橄欖公園,道の駅 小豆島オリーブ公園,34.4723666,134.2741859,"Landscape ,Japan ,Nature ,Blue sky ,Sunny ,Sightseeing resort ,Tree ,Tourism ,Building ,Autumn ,Green ,Mountain ,Flower ,Noted place ,Cloud ,Plant ,Travel ,Tourist attractions ,April ,Early summer ,Sea ,Tourist attractions ,November ,Daytime ,May ,October ,Landscape ,Park ,Trip ,Coast","風景 ,日本 ,自然 ,藍藍的天空 ,晴天 ,觀光地 ,木頭 ,觀光 ,建設 ,秋天 ,綠色 ,山 ,花 ,名所 ,雲 ,植物 ,旅行 ,觀光名所 ,4月 ,海 ,初夏 ,中午 ,11月 ,旅遊景點 ,5月 ,10月 ,景色 ,公園 ,海岸 ,旅",,4,日本、〒761-4434 香川県小豆郡小豆島町西村甲１９４１−１
329,東北,秋田,檜木內川櫻花道,桧木内川堤公園,39.598915,140.5595106,"Landscape ,Japan ,Nature ,Blue sky ,Sunny ,Sightseeing resort ,Tree ,Tourism ,Building ,Spring ,Green ,Mountain ,Flower ,Noted place ,Cloud ,Plant ,Travel ,Tourist attractions ,April ,Tourist attractions ,Cherry ,Water surface ,May ,Superb view ,Pink ,In full bloom ,River ,Landscape ,Snow ,Tohoku","風景 ,日本 ,自然 ,藍藍的天空 ,晴天 ,觀光地 ,木頭 ,觀光 ,建設 ,春天 ,綠色 ,山 ,花 ,名所 ,雲 ,植物 ,旅行 ,觀光名所 ,4月 ,旅遊景點 ,櫻花 ,水面 ,5月 ,絶景 ,粉色 ,盛開 ,河 ,景色 ,雪 ,東北",,4.3,日本、〒014-0347 秋田県仙北市角館町小勝田中川原
330,關東,茨城,大洗海岸,大洗海岸,36.3124719,140.5866598,"Landscape ,Japan ,Nature ,Sightseeing resort ,Tourism ,Noted place ,Cloud ,Tourist attractions ,Sea ,Tourist attractions ,Winter ,Superb view ,Morning ,Rock ,Shrine ,Coast ,Water ,Light ,Kanto ,Historic building ,January ,Buddhist temples and Shinto shrines ,Horizon ,Sunrise glow ,Torii ,Sun ,Morning sun ,Shrines and temples ,Dawn ,Temples and shrines","風景 ,日本 ,自然 ,觀光地 ,觀光 ,名所 ,雲 ,觀光名所 ,海 ,旅遊景點 ,冬 ,絶景 ,早上 ,岩石 ,神社 ,海岸 ,水 ,光 ,關東 ,歷史建築 ,1 月 ,水平線 ,寺社佛閣 ,朝霞 ,鳥居 ,太陽 ,朝日 ,神社佛閣 ,黎明 ,寺廟和神社",,4.1,日本、〒311-1301 茨城県東茨城郡大洗町磯浜町
331,關東,茨城,筑波山,筑波山,36.2253757,140.1074925,"Landscape ,Japan ,Nature ,Blue sky ,Sunny ,Sightseeing resort ,Tree ,Tourism ,Spring ,Green ,Mountain ,Flower ,Noted place ,Cloud ,Plant ,Travel ,Tourist attractions ,April ,Tourist attractions ,Daytime ,Cherry ,Winter ,Water surface ,May ,Fresh green ,In full bloom ,Landscape ,Sunny ,Park ,Green","風景 ,日本 ,自然 ,藍藍的天空 ,晴天 ,觀光地 ,木頭 ,觀光 ,春天 ,綠色 ,山 ,花 ,名所 ,雲 ,植物 ,旅行 ,觀光名所 ,4月 ,中午 ,旅遊景點 ,櫻花 ,冬 ,水面 ,5月 ,鮮綠 ,盛開 ,景色 ,陽光明媚 ,公園 ,藍色",,4.2,日本、〒300-4352 茨城県つくば市筑波 筑波山
332,關東,群馬,水上溫泉,宝川温泉汪泉閣,36.8478687,139.046796,"Landscape ,Japan ,Nature ,Blue sky ,Sunny ,Sightseeing resort ,Spring ,May ,Night view ,River ,Light up ,August ,July ,Valley, Canyon, Gorge ,Kanto ,Torrent ,Hot Spring ,River ,Hiking ,Gunma Prefecture ,Going down the river ,Hotel ,Minakami-machi ,Roadside station ,Minakami Onsen ,Hot spring inn ,On the water ,Hot spring hotel","風景 ,日本 ,自然 ,藍藍的天空 ,晴天 ,觀光地 ,春天 ,5月 ,夜景 ,河 ,亮燈 ,7月 ,8月 ,溪谷 ,關東 ,溪流 ,溫泉 ,河川 ,健行 ,群馬縣 ,河川下游 ,飯店 ,水上町 ,水上溫泉 ,溫泉旅館 ,道站 ,溫泉飯店",,4.1,日本、〒379-1721 群馬県利根郡みなかみ町藤原１８９９
333,中國,島根,松江城,松江城,35.4751335,133.0506783,"Landscape ,Japan ,Nature ,Blue sky ,Sunny ,Sightseeing resort ,Tourism ,Building ,Autumn ,Spring ,Green ,Flower ,Noted place ,Autumn leaves ,Cloud ,Travel ,Tourist attractions ,April ,Tourist attractions ,November ,Buildings ,Cherry ,Winter ,In full bloom ,Landscape ,Sunny ,Snow ,Blue ,Red ,Yellow","風景 ,日本 ,自然 ,藍藍的天空 ,晴天 ,觀光地 ,觀光 ,建設 ,秋天 ,春天 ,綠色 ,花 ,名所 ,紅葉 ,雲 ,旅行 ,觀光名所 ,4月 ,11月 ,旅遊景點 ,建築物 ,櫻花 ,冬 ,盛開 ,景色 ,陽光明媚 ,雪 ,藍色 ,紅色 ,黃色",,4.2,日本、〒690-0887 島根県松江市殿町１−５
334,關西,京都,祇園白川櫻,京のうまいもの屋 櫻,35.0073535,135.7786678,"Landscape ,Japan ,Sightseeing resort ,Tourism ,Spring ,Noted place ,Travel ,Tourist attractions ,April ,Tourist attractions ,Cherry ,Fresh green ,Night view ,City ,Night ,In full bloom ,Light up ,Cityscape ,Morning ,Kyoto Prefecture ,Trip ,Asia ,Kyoto ,Harmony ,Kinki ,Townscape ,Kansai ,March ,Japanese-style ,Cherry blossom","風景 ,日本 ,觀光地 ,觀光 ,春天 ,名所 ,旅行 ,觀光名所 ,4月 ,旅遊景點 ,櫻花 ,鮮綠 ,街 ,夜景 ,晚上 ,盛開 ,亮燈 ,街燈 ,早上 ,京都府 ,旅 ,亞洲 ,京都 ,近畿 ,和 ,市區街道 ,關西 ,3月 ,日本風格 ,櫻花",,4.5,日本、〒605-0068 京都府京都市東山区稲荷町北組５７３−１
335,北海道,道北,宗谷岬,宗谷岬,45.5229025,141.9365949,"Landscape ,Japan ,Nature ,Blue sky ,Sunny ,Sightseeing resort ,Autumn ,Tourist attractions ,Sea ,Hokkaido ,October ,June ,Evening ,September ,February ,Sunrise glow ,Sunset ,Sunset ,Dusk ,Evening view ,Cape ,Strait ,Monument ,Sea of Okhotsk ,Stone monument ,Monument ,Drift ice ,Wakkanai ,Cape Soya","風景 ,日本 ,自然 ,藍藍的天空 ,晴天 ,觀光地 ,秋天 ,觀光名所 ,海 ,北海道 ,10月 ,6月 ,傍晚 ,9月 ,2月 ,朝霞 ,日落 ,日落 ,傍晚 ,日落 ,海角 ,海峽 ,紀念碑 ,鄂霍茨克海 ,石碑 ,紀念碑 ,流冰 ,稚内 ,宗谷岬",,4.3,日本、〒098-6758 北海道稚内市宗谷岬
339,四國,高知,仁淀川,仁淀川,33.5366853,133.2556537,"Landscape ,Japan ,Nature ,Sunny ,Green ,Summer ,April ,November ,Water surface ,Fresh green ,River ,August ,Rock ,Water ,September ,Valley, Canyon, Gorge ,Torrent ,Flow ,Clear stream ,River ,Water's edge ,Shikoku ,Transparency ,Emerald Green ,Kochi Prefecture ,Azalea ,Niyodogawa River ,Tosa ,Yasui Valley ,Niyodogawa-cho","風景 ,日本 ,自然 ,晴天 ,綠色 ,夏 ,4月 ,11月 ,水面 ,鮮綠 ,河 ,8月 ,岩石 ,9月 ,水 ,溪谷 ,溪流 ,流 ,清流 ,水邊 ,河川 ,四國 ,透明 ,翡翠綠 ,高知縣 ,杜鵑 ,仁淀川 ,土佐 ,安居溪谷 ,仁淀川町",,4.2,日本、高知県 仁淀川
340,中國,廣島,嚴島神社,厳島神社,34.2959885,132.3198262,"Landscape ,Japan ,Nature ,Blue sky ,Sunny ,Sightseeing resort ,Tourism ,Building ,Summer ,Noted place ,Cloud ,Travel ,Tourist attractions ,Sea ,Tourist attractions ,November ,Daytime ,Night view ,City ,Night ,October ,Landscape ,Sunny ,Cityscape ,June ,August ,World heritage site ,Shrine ,Trip ,Coast","風景 ,日本 ,自然 ,藍藍的天空 ,晴天 ,觀光地 ,觀光 ,建設 ,夏 ,名所 ,雲 ,旅行 ,觀光名所 ,海 ,11月 ,中午 ,旅遊景點 ,街 ,夜景 ,晚上 ,10月 ,景色 ,陽光明媚 ,街燈 ,6月 ,8月 ,世界文化遺產 ,神社 ,海岸 ,旅",,4.6,日本、〒739-0588 広島県廿日市市宮島町１−１
344,北海道,道東,破冰船 網走流冰,道の駅 流氷街道網走,44.0220246,144.2739677,"Landscape ,Japan ,Nature ,Blue sky ,Sightseeing resort ,Tourism ,Spring ,Noted place ,Travel ,Tourist attractions ,Sea ,Winter ,Water surface ,Superb view ,Hokkaido ,Landscape ,Sunny ,Snow ,Blue ,Beautiful ,World heritage site ,Trip ,Coast ,Water ,Light ,February ,Vehicle ,Fine weather ,Snowscape ,White","風景 ,日本 ,自然 ,藍藍的天空 ,觀光地 ,觀光 ,春天 ,名所 ,旅行 ,觀光名所 ,海 ,冬 ,水面 ,絶景 ,北海道 ,景色 ,陽光明媚 ,雪 ,藍色 ,美麗 ,世界文化遺產 ,海岸 ,旅 ,水 ,光 ,2月 ,遊樂設施 ,晴天 ,雪景 ,白色",,3.8,日本、〒093-0003 北海道網走市南３条東４丁目
345,沖繩,沖繩,川平灣,川平湾 ひりふき,24.4627537,124.1440332,"Landscape ,Japan ,Nature ,Blue sky ,Sunny ,Sightseeing resort ,Tourism ,Summer ,Noted place ,Cloud ,Travel ,April ,Sea ,Water surface ,Superb view ,Landscape ,Sunny ,August ,Blue ,July ,Trip ,Coast ,Asia ,September ,Fine weather ,Island ,Boat ,Okinawa Prefecture ,Leisure ,Mid summer","風景 ,日本 ,自然 ,藍藍的天空 ,晴天 ,觀光地 ,觀光 ,夏 ,名所 ,雲 ,旅行 ,4月 ,海 ,水面 ,絶景 ,景色 ,陽光明媚 ,藍色 ,7月 ,8月 ,海岸 ,旅 ,9月 ,亞洲 ,晴天 ,島 ,船 ,沖繩縣 ,休閒 ,盛夏",,4.5,日本、〒907-0453 沖縄県石垣市川平１０５４
349,中部,富士山,富士芝櫻花祭,富士山,35.3606255,138.7273634,"Japan ,Nature ,Blue sky ,Sunny ,Sightseeing resort ,Tree ,Tourism ,Spring ,Mountain ,Flower ,Noted place ,Plant ,Travel ,Early summer ,May ,Fresh green ,Pink ,In full bloom ,Landscape ,Sunny ,Park ,World heritage site ,Trip ,Pond ,Asia ,World cultural heritage ,Flower garden ,Harmony ,Mt. Fuji ,Yamanashi Prefecture","日本 ,自然 ,藍藍的天空 ,晴天 ,觀光地 ,木頭 ,觀光 ,春天 ,山 ,花 ,名所 ,植物 ,旅行 ,初夏 ,5月 ,鮮綠 ,粉色 ,盛開 ,景色 ,陽光明媚 ,公園 ,世界文化遺產 ,旅 ,池 ,亞洲 ,世界文化遺產 ,花卉園 ,和 ,富士山 ,山梨縣",,4.5,日本、〒418-0112 静岡県富士宮市北山 富士山
350,中國,岡山,倉敷美觀地區,倉敷美観地区,34.5957392,133.7717651,"Landscape ,Japan ,Blue sky ,Sunny ,Sightseeing resort ,Tree ,Tourism ,Building ,Noted place ,Cloud ,Plant ,Travel ,Tourist attractions ,Tourist attractions ,Buildings ,Winter ,Water surface ,May ,Superb view ,Night view ,City ,Night ,River ,Landscape ,Sunny ,Light up ,Cityscape ,June ,Blue ,Beautiful","風景 ,日本 ,藍藍的天空 ,晴天 ,觀光地 ,木頭 ,觀光 ,建設 ,名所 ,雲 ,植物 ,旅行 ,觀光名所 ,旅遊景點 ,建築物 ,冬 ,水面 ,5月 ,絶景 ,街 ,夜景 ,晚上 ,河 ,景色 ,陽光明媚 ,亮燈 ,街燈 ,藍色 ,6月 ,美麗",,4.3,日本、〒710-0054 岡山県倉敷市本町
354,關東,東京,昭和紀念公園,国営昭和記念公園,35.7111,139.3975365,"Landscape ,Japan ,Nature ,Blue sky ,Sunny ,Tree ,Tourism ,Natural landscape ,Autumn ,Spring ,Noted place ,Autumn leaves ,Cloud ,Plant ,April ,November ,Water surface ,Fresh green ,Superb view ,Landscape ,Sunny ,Park ,Green ,Red ,Yellow ,Road ,Pond ,Water ,Yellow leaf ,Tokyo Metropolitan Area","風景 ,日本 ,自然 ,藍藍的天空 ,晴天 ,木頭 ,觀光 ,自然風景 ,秋天 ,春天 ,名所 ,紅葉 ,雲 ,植物 ,4月 ,11月 ,水面 ,鮮綠 ,絶景 ,景色 ,陽光明媚 ,公園 ,綠色 ,紅色 ,黃色 ,道路 ,池 ,水 ,黄葉 ,東京都",,4.3,日本、〒190-0014 東京都立川市緑町３１７３
355,關西,三重,伊勢神宮,伊勢神宮,34.45501,136.725793,"Landscape ,Japan ,Sightseeing resort ,Tourism ,Building ,Spring ,Green ,Noted place ,Tourist attractions ,April ,November ,May ,Fresh green ,Bridge ,World heritage site ,History ,Shrine ,Asia ,Light ,World cultural heritage ,Historic site ,Historic building ,Kinki ,Harmony ,Buddhist temples and Shinto shrines ,Grounds of a shrine ,Sunrise glow ,Approach ,Torii ,Morning sun","風景 ,日本 ,觀光地 ,觀光 ,建設 ,春天 ,綠色 ,名所 ,觀光名所 ,4月 ,11月 ,5月 ,鮮綠 ,橋 ,世界文化遺產 ,歷史 ,神社 ,亞洲 ,光 ,世界文化遺產 ,歷史遺址 ,歷史建築 ,近畿 ,和 ,寺社佛閣 ,境内 ,朝霞 ,参道 ,鳥居 ,朝日",,4.6,日本、〒516-0023 三重県伊勢市宇治館町１
359,東北,岩手,北山崎,北山崎,39.9791902,141.9532803,"Landscape ,Nature ,Blue sky ,Sunny ,Sightseeing resort ,Tourism ,Summer ,Travel ,Sea ,Winter ,Water surface ,May ,Superb view ,Landscape ,Sunny ,Tohoku ,Green ,Blue ,August ,Rock ,Coast ,February ,Scenic spot ,Horizon ,National Park ,Morning sun ,Fog ,Iwate Prefecture ,Tohoku Region ,Viewing platform","風景 ,自然 ,藍藍的天空 ,晴天 ,觀光地 ,觀光 ,夏 ,旅行 ,海 ,冬 ,水面 ,5月 ,絶景 ,景色 ,陽光明媚 ,東北 ,藍色 ,綠色 ,8月 ,岩石 ,海岸 ,2月 ,風景名勝區 ,水平線 ,國家公園 ,朝日 ,霧 ,岩手縣 ,東北地方 ,展望台",,4.3,日本、〒028-8402 岩手県下閉伊郡田野畑村北山
363,關西,滋賀,琵琶湖,琵琶湖,35.3456394,136.1709012,"Landscape ,Japan ,Nature ,Blue sky ,Sunny ,Sightseeing resort ,Tourism ,Natural landscape ,Mountain ,Summer ,Noted place ,Cloud ,Travel ,Tourist attractions ,Tourist attractions ,Water surface ,Superb view ,Pink ,Landscape ,Sunny ,Blue ,Beautiful ,Morning ,Lake ,Shrine ,Fine weather ,Kinki ,Kansai ,Orange ,Fresh",,,4.4,日本、滋賀県 琵琶湖
364,中部,富士山,富士山,富士山,35.3606255,138.7273634,,,,4.5,日本、〒418-0112 静岡県富士宮市北山 富士山
365,東北,宮城,鳴子峽,鳴子峡,38.7296457,140.6907528,"Landscape ,Japan ,Nature ,Blue sky ,Sunny ,Sightseeing resort ,Tree ,Tourism ,Autumn ,Mountain ,Noted place ,Autumn leaves ,Plant ,Travel ,Tourist attractions ,Tourist attractions ,November ,Daytime ,Superb view ,October ,Landscape ,Sunny ,Tohoku ,Bridge ,Green ,Blue ,Red ,Yellow ,Trip ,Asia","風景 ,日本 ,自然 ,藍藍的天空 ,晴天 ,觀光地 ,木頭 ,觀光 ,秋天 ,山 ,名所 ,紅葉 ,植物 ,旅行 ,觀光名所 ,11月 ,中午 ,旅遊景點 ,絶景 ,10月 ,景色 ,陽光明媚 ,東北 ,橋 ,藍色 ,綠色 ,紅色 ,黃色 ,旅 ,亞洲",,4.1,日本、〒989-6100 宮城県大崎市鳴子温泉
369,中部,新潟,村松公園,村松公園,37.6927043,139.1881628,"Landscape ,Nature ,Blue sky ,Sunny ,Autumn ,Spring ,Flower ,Autumn leaves ,Plant ,April ,November ,Cherry ,In full bloom ,Park ,Morning ,Pond ,Leaf ,Cherry blossom ,Cherry blossom ,100 best cherry blossom in Japan ,Niigata Prefecture ,Reflective water surface ,Niigata ,Cloudy ,Orange ,Gosen-shi ,Muramatsu Park","風景 ,自然 ,藍藍的天空 ,晴天 ,秋天 ,春天 ,花 ,紅葉 ,植物 ,4月 ,11月 ,櫻花 ,盛開 ,公園 ,早上 ,池 ,葉 ,櫻花 ,櫻花 ,日本櫻花百選 ,新潟縣 ,水中倒影 ,新潟 ,陰天 ,橘色 ,五泉市 ,村松公園",,4.1,日本、〒959-1765 新潟県五泉市愛宕甲２６３１−１
370,中國,島根,宍道湖,宍道湖,35.4426772,132.9514285,"Landscape ,Nature ,Tourism ,Noted place ,April ,November ,Water surface ,May ,June ,Lake ,Island ,Boat ,Sunset ,Sunset ,Dusk ,Evening view ,Orange ,Shimane Prefecture ,San'in ,Matsue-shi ,Shimane ,San'in Region ,Ripples ,Be dyed ,Lake Shinji ,The floating island","風景 ,自然 ,觀光 ,名所 ,4月 ,11月 ,水面 ,5月 ,6月 ,湖 ,島 ,船 ,日落 ,日落 ,傍晚 ,日落 ,橘色 ,島根縣 ,山陰 ,島根 ,松江市 ,山陰地方 ,漣漪 ,染色 ,宍道湖 ,浮島",,4.3,日本、島根県 宍道湖
371,東北,青森,蔦沼,蔦沼,40.6008306,140.9499649,"Landscape ,Japan ,Nature ,Blue sky ,Sunny ,Sightseeing resort ,Tourism ,Natural landscape ,Autumn ,Spring ,Green ,Mountain ,Noted place ,Autumn leaves ,Cloud ,Tourist attractions ,Early summer ,Tourist attractions ,Winter ,Water surface ,May ,Fresh green ,October ,Tohoku ,Beautiful ,Red ,Lake ,Forest ,February ,Fine weather","風景 ,日本 ,自然 ,藍藍的天空 ,晴天 ,觀光地 ,觀光 ,自然風景 ,秋天 ,春天 ,綠色 ,山 ,名所 ,紅葉 ,雲 ,觀光名所 ,初夏 ,旅遊景點 ,冬 ,水面 ,5月 ,鮮綠 ,10月 ,東北 ,紅色 ,美麗 ,湖 ,森 ,2月 ,晴天",,4.6,日本、〒034-0301 青森県十和田市奥瀬 蔦沼
372,九州,大分,由布川溪谷,由布川峡谷,33.2353316,131.4508947,"Landscape ,Japan ,Nature ,Sightseeing resort ,Tree ,Tourism ,Green ,Summer ,Noted place ,Plant ,Travel ,Tourist attractions ,Early summer ,Tourist attractions ,May ,Fresh green ,Superb view ,River ,October ,Green ,Rock ,Trip ,Water ,September ,Kyushu ,Valley, Canyon, Gorge ,Waterfall ,Scenic spot ,Torrent ,Flow","風景 ,日本 ,自然 ,觀光地 ,木頭 ,觀光 ,綠色 ,夏 ,名所 ,植物 ,旅行 ,觀光名所 ,初夏 ,旅遊景點 ,5月 ,鮮綠 ,絶景 ,河 ,10月 ,綠色 ,岩石 ,旅 ,9月 ,水 ,九州 ,溪谷 ,瀑布 ,風景名勝區 ,溪流 ,流",,3.8,日本、〒879-5525 大分県由布市挾間町朴木
373,關東,埼玉,羊山公園,羊山公園,35.9838804,139.0883229,"Landscape ,Japan ,Nature ,Blue sky ,Sunny ,Tourism ,Spring ,Mountain ,Flower ,Cloud ,Plant ,Travel ,April ,Pink ,In full bloom ,Kanto ,Flower garden ,Pink ,Hill ,Event ,Saitama Prefecture ,Moss pink ,Purple ,Chichibu-shi ,Hitsujiyama Park ,Mt. Buko ,Hill of Moss pink","風景 ,日本 ,自然 ,藍藍的天空 ,晴天 ,觀光 ,春天 ,山 ,花 ,雲 ,植物 ,旅行 ,4月 ,粉色 ,盛開 ,關東 ,花卉園 ,桃色 ,小山 ,活動 ,埼玉縣 ,芝櫻 ,紫 ,秩父市 ,羊山公園 ,武甲山 ,芝櫻芝丘",,4,日本、〒368-0023 埼玉県秩父市大宮６３６０
377,北海道,道央,洞爺湖,洞爺湖,42.625499,140.8433144,"Landscape ,Japan ,Nature ,Blue sky ,Sunny ,Sightseeing resort ,Tourism ,Summer ,Noted place ,Cloud ,Tourist attractions ,Tourist attractions ,Winter ,Water surface ,May ,Hokkaido ,Landscape ,Snow ,Blue ,August ,July ,Beautiful ,Lake ,February ,December ,Snowscape ,Island ,Snow coverage ,National Park ,Blue","風景 ,日本 ,自然 ,藍藍的天空 ,晴天 ,觀光地 ,觀光 ,夏 ,名所 ,雲 ,觀光名所 ,旅遊景點 ,冬 ,水面 ,5月 ,北海道 ,景色 ,雪 ,藍色 ,7月 ,8月 ,美麗 ,湖 ,2月 ,12月 ,雪景 ,島 ,積雪 ,國家公園 ,藍色",,4.4,日本、北海道 洞爺湖
378,關西,京都,渡月橋,渡月橋,35.0129052,135.6777503,"Landscape ,Japan ,Nature ,Blue sky ,Sunny ,Sightseeing resort ,Tourism ,Autumn ,Green ,Mountain ,Summer ,Noted place ,Autumn leaves ,Cloud ,Travel ,Tourist attractions ,Early summer ,Tourist attractions ,November ,Winter ,Water surface ,Fresh green ,Night view ,Night ,River ,Landscape ,Sunny ,Light up ,Bridge ,June","風景 ,日本 ,晴天 ,觀光地 ,觀光 ,綠色 ,夏 ,旅行 ,初夏 ,水面 ,鮮綠 ,河 ,橋 ,6月 ,京都府 ,京都市 ,亞洲 ,京都 ,近畿 ,河川 ,近畿地區 ,嵐山 ,嵯峨野 ,桂川 ,渡月橋",,4.2,日本、〒616-8383 京都府京都市右京区嵯峨中ノ島町
382,關東,東京,築地市場,築地市場,35.6654861,139.7706668,"Landscape ,Japan ,Blue sky ,Tourism ,Building ,River ,Cityscape ,August ,Morning ,Tokyo Metropolitan Area ,Kanto ,Townscape ,March ,View ,City ,Building ,Tokyo ,Large city ,Kanto Region ,Tall building ,Chuo-ku ,Midtown ,Arcade ,Ingredient ,Sumida River ,Market ,Foreigner ,Fresh ,Fish and seafood ,Fish market","風景 ,日本 ,藍藍的天空 ,觀光 ,建設 ,河 ,街燈 ,8月 ,早上 ,東京都 ,關東 ,市區街道 ,3月 ,展望 ,都市 ,大樓 ,東京 ,都會 ,關東地方 ,高樓大廈 ,中央區 ,都心 ,拱廊 ,食材 ,隅田川 ,市場 ,外國人 ,新鮮 ,魚貝類 ,築地市場",,4.2,日本、〒104-0045 東京都中央区築地５丁目２−１
383,東北,福島,大內宿,大内宿,37.3337444,139.8609275,"Landscape ,Japan ,Blue sky ,Sunny ,Sightseeing resort ,Tourism ,Building ,Autumn ,Spring ,Green ,Noted place ,Travel ,Tourist attractions ,April ,Tourist attractions ,Fresh green ,October ,Sunny ,Tohoku ,Cityscape ,August ,History ,Asia ,Historic building ,Harmony ,Townscape ,Countryside ,Tradition ,Japanese houses ,Row of houses","風景 ,日本 ,藍藍的天空 ,晴天 ,觀光地 ,觀光 ,建設 ,秋天 ,春天 ,綠色 ,名所 ,旅行 ,觀光名所 ,4月 ,旅遊景點 ,鮮綠 ,10月 ,陽光明媚 ,東北 ,街燈 ,8月 ,歷史 ,亞洲 ,歷史建築 ,和 ,市區街道 ,田舎 ,傳統 ,日本房子 ,房屋",,4.1,日本、〒969-5207 福島県南会津郡下郷町大内山本
384,東北,青森,青森睡魔祭,ねぶたの家 ワ・ラッセ,40.8296203,140.7359079,,,,4.2,日本、〒030-0803 青森県青森市安方１丁目１−１
385,關西,滋賀,百濟寺,釈迦山 百済寺,35.126839,136.288838,"Landscape ,Japan ,Nature ,Sightseeing resort ,Tree ,Tourism ,Autumn ,Green ,Noted place ,Autumn leaves ,Plant ,November ,Landscape ,Temple ,Yellow ,Trip ,Pond ,Asia ,Yellow leaf ,Historic site ,Garden ,Splendid ,Harmony ,Kinki ,Japanese maple ,Scenic spot ,Buddhist temples and Shinto shrines ,Grounds of a shrine ,Approach ,Landscape","風景 ,日本 ,自然 ,觀光地 ,木頭 ,觀光 ,秋天 ,綠色 ,名所 ,紅葉 ,植物 ,11月 ,景色 ,寺 ,黃色 ,旅 ,池 ,亞洲 ,黄葉 ,歷史遺址 ,花園 ,鮮明 ,近畿 ,和 ,紅葉 ,風景名勝區 ,寺社佛閣 ,境内 ,参道 ,景觀",,4.1,日本、〒527-0144 滋賀県東近江市百済寺町３２３
386,關西,京都,毘沙門堂,毘沙門堂門跡,35.0011831,135.8186824,"Landscape ,Japan ,Nature ,Sunny ,Sightseeing resort ,Tree ,Tourism ,Autumn ,Noted place ,Autumn leaves ,Plant ,Travel ,Tourist attractions ,Tourist attractions ,November ,Red ,Temple ,Morning ,Kyoto Prefecture ,Kyoto-shi ,Kyoto ,Historic site ,Historic building ,Splendid ,Harmony ,Kinki ,December ,Japanese maple ,Kansai ,Japanese maple","風景 ,日本 ,自然 ,晴天 ,觀光地 ,木頭 ,觀光 ,秋天 ,名所 ,紅葉 ,植物 ,旅行 ,觀光名所 ,11月 ,旅遊景點 ,寺 ,紅色 ,早上 ,京都府 ,京都市 ,京都 ,歷史遺址 ,歷史建築 ,鮮明 ,12月 ,近畿 ,和 ,紅葉 ,關西 ,紅葉",,4.3,日本、〒607-8003 京都府京都市山科区安朱稲荷山町１８
387,東北,青森,尻屋崎（寒立馬）,寒立馬越冬放牧地アタカ,41.403865,141.459995,"Landscape ,Japan ,Nature ,Blue sky ,Sunny ,Sightseeing resort ,Tourism ,Building ,Mountain ,Cloud ,Tourist attractions ,Sea ,Tourist attractions ,Winter ,Snow ,August ,Coast ,February ,Historic building ,Snowscape ,Aomori Prefecture ,Snow mountain ,Animal ,Cape ,Natural monument ,Lighthouse ,Pacific ,Strait ,Brick ,Grazing","風景 ,日本 ,自然 ,藍藍的天空 ,晴天 ,觀光地 ,觀光 ,建設 ,山 ,雲 ,觀光名所 ,海 ,旅遊景點 ,冬 ,雪 ,8月 ,海岸 ,2月 ,歷史建築 ,雪景 ,青森縣 ,雪山 ,動物 ,海角 ,自然紀念物 ,燈台 ,太平洋 ,海峽 ,磚頭 ,放牧",,4.3,日本、〒035-0111 青森県下北郡東通村尻屋
388,中部,富山,立山黑部阿爾卑斯路線,立山,36.575833,137.619722,"Landscape ,Japan ,Nature ,Blue sky ,Sunny ,Sightseeing resort ,Tourism ,Spring ,Mountain ,Noted place ,Travel ,Tourist attractions ,April ,Tourist attractions ,Winter ,May ,Landscape ,Sunny ,Snow ,June ,Blue ,Road ,Trip ,Nagano Prefecture ,Fine weather ,Snowscape ,Hokuriku ,Snow coverage ,Blue ,Shinshu","風景 ,日本 ,自然 ,藍藍的天空 ,晴天 ,觀光地 ,觀光 ,春天 ,山 ,名所 ,旅行 ,觀光名所 ,4月 ,旅遊景點 ,冬 ,5月 ,景色 ,陽光明媚 ,雪 ,藍色 ,6月 ,道路 ,旅 ,長野縣 ,晴天 ,雪景 ,北陸 ,積雪 ,藍色 ,信州",,4.7,日本、〒930-1406 富山県中新川郡立山町芦峅寺 立山
389,北海道,道央,地球岬,地球岬,42.3027469,141.000716,"Landscape ,Japan ,Nature ,Blue sky ,Sunny ,Sightseeing resort ,Green ,Noted place ,Cloud ,Travel ,Tourist attractions ,Sea ,Tourist attractions ,Hokkaido ,Landscape ,Sunny ,Cityscape ,Blue ,July ,Beautiful ,Trip ,Coast ,September ,Townscape ,White ,Horizon ,Beautiful ,Blue ,Background ,City","風景 ,日本 ,自然 ,藍藍的天空 ,晴天 ,觀光地 ,綠色 ,名所 ,雲 ,旅行 ,觀光名所 ,海 ,旅遊景點 ,北海道 ,景色 ,陽光明媚 ,街燈 ,藍色 ,7月 ,美麗 ,海岸 ,旅 ,9月 ,市區街道 ,白色 ,水平線 ,漂亮 ,藍色 ,背景 ,都市",,4.1,日本、〒051-0003 北海道室蘭市母恋南町４丁目
393,關東,東京,御藏島南方瓶鼻海豚,御蔵島,33.8750529,139.6044141,"Landscape ,Nature ,Sightseeing resort ,Tourism ,Summer ,Travel ,Sea ,May ,Superb view ,October ,Landscape ,Blue ,Beautiful ,Trip ,September ,Tokyo Metropolitan Area ,Fine weather ,Kanto ,Island ,Beautiful ,Boat ,National Park ,Blue ,Background ,Beautiful ,Leisure ,Hiking ,Animal ,Outdoor ,Magnificent","風景 ,自然 ,觀光地 ,觀光 ,夏 ,旅行 ,海 ,5月 ,絶景 ,10月 ,景色 ,藍色 ,美麗 ,旅 ,9月 ,東京都 ,晴天 ,關東 ,島 ,漂亮 ,船 ,國家公園 ,藍色 ,背景 ,漂亮 ,休閒 ,健行 ,動物 ,戶外 ,偉大",,4.1,日本、〒100-1301 東京都御蔵島村 御蔵島
394,關東,茨城,袋田之瀧,袋田の滝,36.7645486,140.4071966,"Landscape ,Japan ,Nature ,Sightseeing resort ,Tourism ,Autumn ,Green ,Summer ,Noted place ,Autumn leaves ,Tourist attractions ,Tourist attractions ,November ,Winter ,Superb view ,Night view ,Landscape ,Light up ,Blue ,July ,Water ,Kanto ,Snowscape ,Waterfall ,January ,River ,Scenic spot ,Green ,Mountain climbing ,Thing that reminds one of a particular season","風景 ,日本 ,自然 ,觀光地 ,觀光 ,秋天 ,綠色 ,夏 ,名所 ,紅葉 ,觀光名所 ,11月 ,旅遊景點 ,冬 ,絶景 ,夜景 ,景色 ,亮燈 ,藍色 ,7月 ,水 ,關東 ,雪景 ,瀑布 ,1 月 ,河川 ,名勝 ,綠色 ,登山 ,風物詩",,4.2,日本、〒319-3523 茨城県久慈郡大子町袋田３−１９
395,關西,京都,嵐山,嵐山,35.009449,135.666773,"Landscape ,Japan ,Nature ,Blue sky ,Uninhabited ,Sunny ,Sightseeing resort ,Tree ,Tourism ,Autumn ,Spring ,Green ,Mountain ,Summer ,Noted place ,Autumn leaves ,Cloud ,Plant ,Travel ,Tourist attractions ,Tourist attractions ,Cherry ,Winter ,Water surface ,Fresh green ,Night view ,Night ,River ,Landscape ,Sunny","風景 ,日本 ,自然 ,藍藍的天空 ,吾人 ,晴天 ,觀光地 ,木頭 ,觀光 ,秋天 ,春天 ,綠色 ,山 ,夏 ,名所 ,紅葉 ,雲 ,植物 ,旅行 ,觀光名所 ,旅遊景點 ,櫻花 ,冬 ,水面 ,鮮綠 ,夜景 ,晚上 ,河 ,景色 ,陽光明媚",,4.4,日本、〒616-0007 京都府京都市右京区
399,四國,高知,桂濱,桂浜,33.4971366,133.5749209,"Landscape ,Japan ,Nature ,Blue sky ,Sunny ,Sightseeing resort ,Tourism ,Noted place ,Travel ,Tourist attractions ,Sea ,Tourist attractions ,Landscape ,Sunny ,Blue ,August ,Beautiful ,Trip ,Coast ,September ,December ,Scenic spot ,Horizon ,Beautiful ,Shikoku ,Background ,Beautiful ,Scenic spot ,Taste ,Sea level","風景 ,日本 ,自然 ,藍藍的天空 ,晴天 ,觀光地 ,觀光 ,名所 ,旅行 ,觀光名所 ,海 ,旅遊景點 ,景色 ,陽光明媚 ,藍色 ,8月 ,美麗 ,海岸 ,旅 ,9月 ,12月 ,風景名勝區 ,水平線 ,漂亮 ,四國 ,背景 ,漂亮 ,名勝 ,風情 ,海面",,4.1,日本、〒781-0262 高知県高知市浦戸桂浜
403,關東,箱根,仙石原芒草,仙石原すすき草原,35.2592974,139.0031858,"Landscape ,Japan ,Nature ,Blue sky ,Sunny ,Sightseeing resort ,Tourism ,Natural landscape ,Autumn ,Mountain ,Noted place ,Autumn leaves ,Cloud ,Plant ,Travel ,Tourist attractions ,Tourist attractions ,November ,Winter ,Superb view ,October ,Landscape ,Sunny ,Blue ,Yellow ,Evening ,Asia ,September ,Light ,Leaf","風景 ,日本 ,自然 ,藍藍的天空 ,晴天 ,觀光地 ,觀光 ,自然風景 ,秋天 ,山 ,名所 ,紅葉 ,雲 ,植物 ,旅行 ,觀光名所 ,11月 ,旅遊景點 ,冬 ,絶景 ,10月 ,景色 ,陽光明媚 ,藍色 ,黃色 ,傍晚 ,9月 ,亞洲 ,光 ,關東",,4.1,日本、〒250-0631 神奈川県足柄下郡箱根町仙石原
404,北海道,道北,富田農場,ファーム富田,43.418149,142.427995,"Landscape ,Nature ,Blue sky ,Sightseeing resort ,Flower ,Summer ,Cloud ,Plant ,Tourist attractions ,Hokkaido ,Landscape ,July ,Yellow ,Flower garden ,Red ,Hill ,Purple ,Lavender ,Hills ,Furano ,Farm Tomita","風景 ,自然 ,藍藍的天空 ,觀光地 ,花 ,夏 ,雲 ,植物 ,旅遊景點 ,北海道 ,景色 ,7月 ,黃色 ,花卉園 ,紅 ,小山 ,紫 ,薰衣草 ,小山 ,富良野 ,富田農場",,4.3,日本、〒071-0704 北海道空知郡中富良野町基線北１５号
408,中部,金澤,近江町市場,近江町市場,36.5716505,136.6561483,"Japan ,Sightseeing resort ,Tourism ,Building ,Noted place ,Travel ,Tourist attractions ,Cityscape ,June ,Road ,Townscape ,Hokuriku ,March ,City ,Building ,Ishikawa Prefecture ,City landscape ,City area ,Landmark ,Traffic ,Kanazawa ,Kanazawa-shi ,Architecture ,Shopping street ,Castle town ,Ingredient ,Lively ,Market ,Public facility ,Fishing","日本 ,觀光地 ,觀光 ,建設 ,名所 ,旅行 ,觀光名所 ,街燈 ,6月 ,道路 ,市區街道 ,北陸 ,3月 ,都市 ,大樓 ,石川縣 ,都市風景 ,城市地區 ,地標 ,交通 ,金澤 ,金澤市 ,建築 ,商店街 ,城下町 ,食材 ,活潑 ,市場 ,漁業 ,公共設施",,3.9,日本、〒920-0905 石川県金沢市上近江町５０
